$GPRMC,090754.000,A,5351.975,N,01040.318,E,0.00,0.00,240809,,*0D
$GPGGA,090754.000,5351.975,N,01040.318,E,1,00,0.0,2.100,M,0.0,M,,*66
$GPGSA,A,3,,,,,,,,,,,,,0.0,0.0,0.0*32
$GPRMC,090755.000,A,5351.975,N,01040.318,E,0.00,0.00,240809,,*0C
$GPGGA,090755.000,5351.975,N,01040.318,E,1,00,0.0,1.290,M,0.0,M,,*6E
$GPGSA,A,3,,,,,,,,,,,,,0.0,0.0,0.0*32
$GPRMC,090756.000,A,5351.974,N,01040.317,E,0.00,0.00,240809,,*01
$GPGGA,090756.000,5351.974,N,01040.317,E,1,00,0.0,1.760,M,0.0,M,,*69
$GPGSA,A,3,,,,,,,,,,,,,0.0,0.0,0.0*32
$GPRMC,090757.000,A,5351.974,N,01040.317,E,0.00,0.00,240809,,*00
$GPGGA,090757.000,5351.974,N,01040.317,E,1,00,0.0,0.960,M,0.0,M,,*67
$GPGSA,A,3,,,,,,,,,,,,,0.0,0.0,0.0*32
$GPRMC,090758.000,A,5351.975,N,01040.318,E,0.00,0.00,240809,,*01
$GPGGA,090758.000,5351.975,N,01040.318,E,1,00,0.0,1.290,M,0.0,M,,*63
$GPGSA,A,3,,,,,,,,,,,,,0.0,0.0,0.0*32
$GPRMC,090759.000,A,5351.975,N,01040.318,E,0.00,0.00,240809,,*00
$GPGGA,090759.000,5351.975,N,01040.318,E,1,00,0.0,2.100,M,0.0,M,,*6B
$GPGSA,A,3,,,,,,,,,,,,,0.0,0.0,0.0*32
$GPRMC,000000.000,A,5351.975,N,01040.318,E,0.00,0.00,010070,,*03
$GPGGA,000000.000,5351.975,N,01040.318,E,1,00,0.0,2.100,M,0.0,M,,*69
$GPGSA,A,3,,,,,,,,,,,,,0.0,0.0,0.0*32
$GPRMC,090800.000,A,5351.975,N,01040.319,E,0.00,0.00,240809,,*02
$GPGGA,090800.000,5351.975,N,01040.319,E,1,00,0.0,1.630,M,0.0,M,,*6E
$GPGSA,A,3,,,,,,,,,,,,,0.0,0.0,0.0*32
$GPRMC,090801.000,A,5351.975,N,01040.320,E,0.00,0.00,240809,,*09
$GPGGA,090801.000,5351.975,N,01040.320,E,1,00,0.0,1.740,M,0.0,M,,*63
$GPGSA,A,3,,,,,,,,,,,,,0.0,0.0,0.0*32
$GPRMC,090802.000,A,5351.975,N,01040.321,E,0.00,0.00,240809,,*0B
$GPGGA,090802.000,5351.975,N,01040.321,E,1,00,0.0,2.660,M,0.0,M,,*61
$GPGSA,A,3,,,,,,,,,,,,,0.0,0.0,0.0*32
$GPRMC,090803.000,A,5351.974,N,01040.323,E,0.00,0.00,240809,,*09
$GPGGA,090803.000,5351.974,N,01040.323,E,1,00,0.0,2.650,M,0.0,M,,*60
$GPGSA,A,3,,,,,,,,,,,,,0.0,0.0,0.0*32
$GPRMC,090804.000,A,5351.974,N,01040.324,E,0.00,0.00,240809,,*09
$GPGGA,090804.000,5351.974,N,01040.324,E,1,00,0.0,3.340,M,0.0,M,,*65
$GPGSA,A,3,,,,,,,,,,,,,0.0,0.0,0.0*32
$GPRMC,090805.000,A,5351.973,N,01040.325,E,0.00,0.00,240809,,*0E
$GPGGA,090805.000,5351.973,N,01040.325,E,1,00,0.0,4.130,M,0.0,M,,*60
$GPGSA,A,3,,,,,,,,,,,,,0.0,0.0,0.0*32
$GPRMC,090806.000,A,5351.973,N,01040.326,E,0.00,0.00,240809,,*0E
$GPGGA,090806.000,5351.973,N,01040.326,E,1,00,0.0,4.240,M,0.0,M,,*64
$GPGSA,A,3,,,,,,,,,,,,,0.0,0.0,0.0*32
$GPRMC,090807.000,A,5351.973,N,01040.328,E,0.00,0.00,240809,,*01
$GPGGA,090807.000,5351.973,N,01040.328,E,1,00,0.0,4.460,M,0.0,M,,*6F
$GPGSA,A,3,,,,,,,,,,,,,0.0,0.0,0.0*32
$GPRMC,090808.000,A,5351.973,N,01040.329,E,0.00,0.00,240809,,*0F
$GPGGA,090808.000,5351.973,N,01040.329,E,1,00,0.0,4.570,M,0.0,M,,*61
$GPGSA,A,3,,,,,,,,,,,,,0.0,0.0,0.0*32
$GPRMC,090809.000,A,5351.973,N,01040.330,E,0.00,0.00,240809,,*06
$GPGGA,090809.000,5351.973,N,01040.330,E,1,00,0.0,3.870,M,0.0,M,,*62
$GPGSA,A,3,,,,,,,,,,,,,0.0,0.0,0.0*32
$GPRMC,090810.000,A,5351.972,N,01040.332,E,0.00,0.00,240809,,*0D
$GPGGA,090810.000,5351.972,N,01040.332,E,1,00,0.0,4.090,M,0.0,M,,*68
$GPGSA,A,3,,,,,,,,,,,,,0.0,0.0,0.0*32
$GPRMC,090811.000,A,5351.972,N,01040.332,E,0.00,0.00,240809,,*0C
$GPGGA,090811.000,5351.972,N,01040.332,E,1,00,0.0,4.780,M,0.0,M,,*6F
$GPGSA,A,3,,,,,,,,,,,,,0.0,0.0,0.0*32
$GPRMC,090812.000,A,5351.972,N,01040.333,E,0.00,0.00,240809,,*0E
$GPGGA,090812.000,5351.972,N,01040.333,E,1,00,0.0,4.890,M,0.0,M,,*63
$GPGSA,A,3,,,,,,,,,,,,,0.0,0.0,0.0*32
$GPRMC,090813.000,A,5351.972,N,01040.335,E,0.00,0.00,240809,,*09
$GPGGA,090813.000,5351.972,N,01040.335,E,1,00,0.0,5.110,M,0.0,M,,*64
$GPGSA,A,3,,,,,,,,,,,,,0.0,0.0,0.0*32
$GPRMC,090814.000,A,5351.972,N,01040.336,E,0.00,0.00,240809,,*0D
$GPGGA,090814.000,5351.972,N,01040.336,E,1,00,0.0,5.220,M,0.0,M,,*60
$GPGSA,A,3,,,,,,,,,,,,,0.0,0.0,0.0*32
$GPRMC,000000.000,A,5351.972,N,01040.336,E,0.00,0.00,010070,,*08
$GPGGA,000000.000,5351.972,N,01040.336,E,1,00,0.0,5.220,M,0.0,M,,*64
$GPGSA,A,3,,,,,,,,,,,,,0.0,0.0,0.0*32
$GPRMC,000000.000,A,5351.972,N,01040.336,E,0.00,0.00,010070,,*08
$GPGGA,000000.000,5351.972,N,01040.336,E,1,00,0.0,5.220,M,0.0,M,,*64
$GPGSA,A,3,,,,,,,,,,,,,0.0,0.0,0.0*32
$GPRMC,090815.000,A,5351.972,N,01040.337,E,0.00,0.00,240809,,*0D
$GPGGA,090815.000,5351.972,N,01040.337,E,1,00,0.0,5.330,M,0.0,M,,*60
$GPGSA,A,3,,,,,,,,,,,,,0.0,0.0,0.0*32
$GPRMC,090816.000,A,5351.971,N,01040.339,E,0.00,0.00,240809,,*03
$GPGGA,090816.000,5351.971,N,01040.339,E,1,00,0.0,5.550,M,0.0,M,,*6E
$GPGSA,A,3,,,,,,,,,,,,,0.0,0.0,0.0*32
$GPRMC,090817.000,A,5351.971,N,01040.339,E,0.00,0.00,240809,,*02
$GPGGA,090817.000,5351.971,N,01040.339,E,1,00,0.0,5.430,M,0.0,M,,*68
$GPGSA,A,3,,,,,,,,,,,,,0.0,0.0,0.0*32
$GPRMC,090818.000,A,5351.970,N,01040.340,E,0.00,0.00,240809,,*02
$GPGGA,090818.000,5351.970,N,01040.340,E,1,00,0.0,5.540,M,0.0,M,,*6E
$GPGSA,A,3,,,,,,,,,,,,,0.0,0.0,0.0*32
$GPRMC,090820.000,A,5351.970,N,01040.343,E,0.00,0.00,240809,,*0A
$GPGGA,090820.000,5351.970,N,01040.343,E,1,00,0.0,5.860,M,0.0,M,,*69
$GPGSA,A,3,,,,,,,,,,,,,0.0,0.0,0.0*32
$GPRMC,090821.000,A,5351.970,N,01040.345,E,0.00,0.00,240809,,*0D
$GPGGA,090821.000,5351.970,N,01040.345,E,1,00,0.0,5.270,M,0.0,M,,*65
$GPGSA,A,3,,,,,,,,,,,,,0.0,0.0,0.0*32
$GPRMC,090822.000,A,5351.970,N,01040.346,E,0.00,0.00,240809,,*0D
$GPGGA,090822.000,5351.970,N,01040.346,E,1,00,0.0,6.190,M,0.0,M,,*6B
$GPGSA,A,3,,,,,,,,,,,,,0.0,0.0,0.0*32
$GPRMC,090823.000,A,5351.970,N,01040.346,E,0.00,0.00,240809,,*0C
$GPGGA,090823.000,5351.970,N,01040.346,E,1,00,0.0,6.300,M,0.0,M,,*61
$GPGSA,A,3,,,,,,,,,,,,,0.0,0.0,0.0*32
$GPRMC,090824.000,A,5351.970,N,01040.348,E,0.00,0.00,240809,,*05
$GPGGA,090824.000,5351.970,N,01040.348,E,1,00,0.0,5.940,M,0.0,M,,*65
$GPGSA,A,3,,,,,,,,,,,,,0.0,0.0,0.0*32
$GPRMC,090826.000,A,5351.971,N,01040.350,E,0.00,0.00,240809,,*0F
$GPGGA,090826.000,5351.971,N,01040.350,E,1,00,0.0,6.390,M,0.0,M,,*6B
$GPGSA,A,3,,,,,,,,,,,,,0.0,0.0,0.0*32
$GPRMC,090827.000,A,5351.971,N,01040.351,E,0.00,0.00,240809,,*0F
$GPGGA,090827.000,5351.971,N,01040.351,E,1,00,0.0,5.810,M,0.0,M,,*6B
$GPGSA,A,3,,,,,,,,,,,,,0.0,0.0,0.0*32
$GPRMC,090828.000,A,5351.971,N,01040.351,E,0.00,0.00,240809,,*00
$GPGGA,090828.000,5351.971,N,01040.351,E,1,00,0.0,5.920,M,0.0,M,,*66
$GPGSA,A,3,,,,,,,,,,,,,0.0,0.0,0.0*32
$GPRMC,090829.000,A,5351.971,N,01040.353,E,0.00,0.00,240809,,*03
$GPGGA,090829.000,5351.971,N,01040.353,E,1,00,0.0,6.940,M,0.0,M,,*60
$GPGSA,A,3,,,,,,,,,,,,,0.0,0.0,0.0*32
$GPRMC,000000.000,A,5351.971,N,01040.353,E,0.00,0.00,010070,,*08
$GPGGA,000000.000,5351.971,N,01040.353,E,1,00,0.0,6.940,M,0.0,M,,*6A
$GPGSA,A,3,,,,,,,,,,,,,0.0,0.0,0.0*32
$GPRMC,090830.000,A,5351.971,N,01040.354,E,0.00,0.00,240809,,*0C
$GPGGA,090830.000,5351.971,N,01040.354,E,1,00,0.0,7.050,M,0.0,M,,*66
$GPGSA,A,3,,,,,,,,,,,,,0.0,0.0,0.0*32
$GPRMC,090831.000,A,5351.971,N,01040.356,E,0.00,0.00,240809,,*0F
$GPGGA,090831.000,5351.971,N,01040.356,E,1,00,0.0,7.270,M,0.0,M,,*65
$GPGSA,A,3,,,,,,,,,,,,,0.0,0.0,0.0*32
$GPRMC,090832.000,A,5351.971,N,01040.357,E,0.00,0.00,240809,,*0D
$GPGGA,090832.000,5351.971,N,01040.357,E,1,00,0.0,7.380,M,0.0,M,,*69
$GPGSA,A,3,,,,,,,,,,,,,0.0,0.0,0.0*32
$GPRMC,090833.000,A,5351.971,N,01040.359,E,0.00,0.00,240809,,*02
$GPGGA,090833.000,5351.971,N,01040.359,E,1,00,0.0,7.020,M,0.0,M,,*6F
$GPGSA,A,3,,,,,,,,,,,,,0.0,0.0,0.0*32
$GPRMC,090834.000,A,5351.971,N,01040.360,E,0.00,0.00,240809,,*0F
$GPGGA,090834.000,5351.971,N,01040.360,E,1,00,0.0,7.130,M,0.0,M,,*62
$GPGSA,A,3,,,,,,,,,,,,,0.0,0.0,0.0*32
$GPRMC,090835.000,A,5351.971,N,01040.361,E,0.00,0.00,240809,,*0F
$GPGGA,090835.000,5351.971,N,01040.361,E,1,00,0.0,5.850,M,0.0,M,,*6F
$GPGSA,A,3,,,,,,,,,,,,,0.0,0.0,0.0*32
$GPRMC,090836.000,A,5351.971,N,01040.362,E,0.00,0.00,240809,,*0F
$GPGGA,090836.000,5351.971,N,01040.362,E,1,00,0.0,6.070,M,0.0,M,,*66
$GPGSA,A,3,,,,,,,,,,,,,0.0,0.0,0.0*32
$GPRMC,090837.000,A,5351.971,N,01040.363,E,0.00,0.00,240809,,*0F
$GPGGA,090837.000,5351.971,N,01040.363,E,1,00,0.0,6.180,M,0.0,M,,*68
$GPGSA,A,3,,,,,,,,,,,,,0.0,0.0,0.0*32
$GPRMC,090838.000,A,5351.971,N,01040.365,E,0.00,0.00,240809,,*06
$GPGGA,090838.000,5351.971,N,01040.365,E,1,00,0.0,7.200,M,0.0,M,,*6B
$GPGSA,A,3,,,,,,,,,,,,,0.0,0.0,0.0*32
$GPRMC,090839.000,A,5351.971,N,01040.366,E,0.00,0.00,240809,,*04
$GPGGA,090839.000,5351.971,N,01040.366,E,1,00,0.0,7.310,M,0.0,M,,*69
$GPGSA,A,3,,,,,,,,,,,,,0.0,0.0,0.0*32
$GPRMC,090840.000,A,5351.971,N,01040.368,E,0.00,0.00,240809,,*04
$GPGGA,090840.000,5351.971,N,01040.368,E,1,00,0.0,7.530,M,0.0,M,,*6D
$GPGSA,A,3,,,,,,,,,,,,,0.0,0.0,0.0*32
$GPRMC,090841.000,A,5351.971,N,01040.369,E,0.00,0.00,240809,,*04
$GPGGA,090841.000,5351.971,N,01040.369,E,1,00,0.0,7.640,M,0.0,M,,*69
$GPGSA,A,3,,,,,,,,,,,,,0.0,0.0,0.0*32
$GPRMC,090842.000,A,5351.970,N,01040.370,E,0.00,0.00,240809,,*0E
$GPGGA,090842.000,5351.970,N,01040.370,E,1,00,0.0,6.940,M,0.0,M,,*6D
$GPGSA,A,3,,,,,,,,,,,,,0.0,0.0,0.0*32
$GPRMC,090844.000,A,5351.970,N,01040.372,E,0.00,0.00,240809,,*0A
$GPGGA,090844.000,5351.970,N,01040.372,E,1,00,0.0,7.270,M,0.0,M,,*60
$GPGSA,A,3,,,,,,,,,,,,,0.0,0.0,0.0*32
$GPRMC,000000.000,A,5351.970,N,01040.372,E,0.00,0.00,010070,,*0A
$GPGGA,000000.000,5351.970,N,01040.372,E,1,00,0.0,7.270,M,0.0,M,,*61
$GPGSA,A,3,,,,,,,,,,,,,0.0,0.0,0.0*32
$GPRMC,000000.000,A,5351.970,N,01040.372,E,0.00,0.00,010070,,*0A
$GPGGA,000000.000,5351.970,N,01040.372,E,1,00,0.0,7.270,M,0.0,M,,*61
$GPGSA,A,3,,,,,,,,,,,,,0.0,0.0,0.0*32
$GPRMC,090845.000,A,5351.970,N,01040.374,E,0.00,0.00,240809,,*0D
$GPGGA,090845.000,5351.970,N,01040.374,E,1,00,0.0,7.490,M,0.0,M,,*6F
$GPGSA,A,3,,,,,,,,,,,,,0.0,0.0,0.0*32
$GPRMC,090846.000,A,5351.970,N,01040.375,E,0.00,0.00,240809,,*0F
$GPGGA,090846.000,5351.970,N,01040.375,E,1,00,0.0,8.400,M,0.0,M,,*6B
$GPGSA,A,3,,,,,,,,,,,,,0.0,0.0,0.0*32
$GPRMC,090847.000,A,5351.970,N,01040.377,E,0.00,0.00,240809,,*0C
$GPGGA,090847.000,5351.970,N,01040.377,E,1,00,0.0,9.200,M,0.0,M,,*6F
$GPGSA,A,3,,,,,,,,,,,,,0.0,0.0,0.0*32
$GPRMC,090848.000,A,5351.969,N,01040.379,E,0.00,0.00,240809,,*05
$GPGGA,090848.000,5351.969,N,01040.379,E,1,00,0.0,9.420,M,0.0,M,,*62
$GPGSA,A,3,,,,,,,,,,,,,0.0,0.0,0.0*32
$GPRMC,090849.000,A,5351.969,N,01040.379,E,0.00,0.00,240809,,*04
$GPGGA,090849.000,5351.969,N,01040.379,E,1,00,0.0,10.920,M,0.0,M,,*56
$GPGSA,A,3,,,,,,,,,,,,,0.0,0.0,0.0*32
$GPRMC,090850.000,A,5351.969,N,01040.381,E,0.00,0.00,240809,,*0B
$GPGGA,090850.000,5351.969,N,01040.381,E,1,00,0.0,9.750,M,0.0,M,,*68
$GPGSA,A,3,,,,,,,,,,,,,0.0,0.0,0.0*32
$GPRMC,090851.000,A,5351.969,N,01040.382,E,0.00,0.00,240809,,*09
$GPGGA,090851.000,5351.969,N,01040.382,E,1,00,0.0,9.860,M,0.0,M,,*66
$GPGSA,A,3,,,,,,,,,,,,,0.0,0.0,0.0*32
$GPRMC,090852.000,A,5351.969,N,01040.384,E,0.00,0.00,240809,,*0C
$GPGGA,090852.000,5351.969,N,01040.384,E,1,00,0.0,10.080,M,0.0,M,,*5D
$GPGSA,A,3,,,,,,,,,,,,,0.0,0.0,0.0*32
$GPRMC,090853.000,A,5351.969,N,01040.385,E,0.00,0.00,240809,,*0C
$GPGGA,090853.000,5351.969,N,01040.385,E,1,00,0.0,11.680,M,0.0,M,,*5A
$GPGSA,A,3,,,,,,,,,,,,,0.0,0.0,0.0*32
$GPRMC,090854.000,A,5351.969,N,01040.387,E,0.00,0.00,240809,,*09
$GPGGA,090854.000,5351.969,N,01040.387,E,1,00,0.0,11.900,M,0.0,M,,*58
$GPGSA,A,3,,,,,,,,,,,,,0.0,0.0,0.0*32
$GPRMC,090855.000,A,5351.969,N,01040.389,E,0.00,0.00,240809,,*06
$GPGGA,090855.000,5351.969,N,01040.389,E,1,00,0.0,12.930,M,0.0,M,,*57
$GPGSA,A,3,,,,,,,,,,,,,0.0,0.0,0.0*32
$GPRMC,090856.000,A,5351.969,N,01040.392,E,0.00,0.00,240809,,*0F
$GPGGA,090856.000,5351.969,N,01040.392,E,1,00,0.0,15.450,M,0.0,M,,*52
$GPGSA,A,3,,,,,,,,,,,,,0.0,0.0,0.0*32
$GPRMC,090857.000,A,5351.969,N,01040.393,E,0.00,0.00,240809,,*0F
$GPGGA,090857.000,5351.969,N,01040.393,E,1,00,0.0,15.670,M,0.0,M,,*52
$GPGSA,A,3,,,,,,,,,,,,,0.0,0.0,0.0*32
$GPRMC,090858.000,A,5351.969,N,01040.394,E,0.00,0.00,240809,,*07
$GPGGA,090858.000,5351.969,N,01040.394,E,1,00,0.0,16.580,M,0.0,M,,*55
$GPGSA,A,3,,,,,,,,,,,,,0.0,0.0,0.0*32
$GPRMC,090859.000,A,5351.969,N,01040.395,E,0.00,0.00,240809,,*07
$GPGGA,090859.000,5351.969,N,01040.395,E,1,00,0.0,16.690,M,0.0,M,,*57
$GPGSA,A,3,,,,,,,,,,,,,0.0,0.0,0.0*32
$GPRMC,090900.000,A,5351.969,N,01040.396,E,0.00,0.00,240809,,*09
$GPGGA,090900.000,5351.969,N,01040.396,E,1,00,0.0,16.220,M,0.0,M,,*56
$GPGSA,A,3,,,,,,,,,,,,,0.0,0.0,0.0*32
$GPRMC,090901.000,A,5351.969,N,01040.397,E,0.00,0.00,240809,,*09
$GPGGA,090901.000,5351.969,N,01040.397,E,1,00,0.0,16.330,M,0.0,M,,*56
$GPGSA,A,3,,,,,,,,,,,,,0.0,0.0,0.0*32
$GPRMC,090902.000,A,5351.969,N,01040.398,E,0.00,0.00,240809,,*05
$GPGGA,090902.000,5351.969,N,01040.398,E,1,00,0.0,15.860,M,0.0,M,,*57
$GPGSA,A,3,,,,,,,,,,,,,0.0,0.0,0.0*32
$GPRMC,090903.000,A,5351.970,N,01040.400,E,0.00,0.00,240809,,*0A
$GPGGA,090903.000,5351.970,N,01040.400,E,1,00,0.0,15.500,M,0.0,M,,*53
$GPGSA,A,3,,,,,,,,,,,,,0.0,0.0,0.0*32
$GPRMC,090904.000,A,5351.969,N,01040.401,E,0.00,0.00,240809,,*04
$GPGGA,090904.000,5351.969,N,01040.401,E,1,00,0.0,15.610,M,0.0,M,,*5F
$GPGSA,A,3,,,,,,,,,,,,,0.0,0.0,0.0*32
$GPRMC,090905.000,A,5351.969,N,01040.402,E,0.00,0.00,240809,,*06
$GPGGA,090905.000,5351.969,N,01040.402,E,1,00,0.0,14.330,M,0.0,M,,*5B
$GPGSA,A,3,,,,,,,,,,,,,0.0,0.0,0.0*32
$GPRMC,090906.000,A,5351.970,N,01040.403,E,0.00,0.00,240809,,*0C
$GPGGA,090906.000,5351.970,N,01040.403,E,1,00,0.0,13.860,M,0.0,M,,*58
$GPGSA,A,3,,,,,,,,,,,,,0.0,0.0,0.0*32
$GPRMC,090907.000,A,5351.970,N,01040.403,E,0.00,0.00,240809,,*0D
$GPGGA,090907.000,5351.970,N,01040.403,E,1,00,0.0,12.470,M,0.0,M,,*55
$GPGSA,A,3,,,,,,,,,,,,,0.0,0.0,0.0*32
$GPRMC,090908.000,A,5351.970,N,01040.404,E,0.00,0.00,240809,,*05
$GPGGA,090908.000,5351.970,N,01040.404,E,1,00,0.0,11.890,M,0.0,M,,*5C
$GPGSA,A,3,,,,,,,,,,,,,0.0,0.0,0.0*32
$GPRMC,090909.000,A,5351.970,N,01040.405,E,0.00,0.00,240809,,*05
$GPGGA,090909.000,5351.970,N,01040.405,E,1,00,0.0,10.620,M,0.0,M,,*58
$GPGSA,A,3,,,,,,,,,,,,,0.0,0.0,0.0*32
$GPRMC,090910.000,A,5351.971,N,01040.406,E,0.00,0.00,240809,,*0F
$GPGGA,090910.000,5351.971,N,01040.406,E,1,00,0.0,10.150,M,0.0,M,,*52
$GPGSA,A,3,,,,,,,,,,,,,0.0,0.0,0.0*32
$GPRMC,090911.000,A,5351.972,N,01040.407,E,0.00,0.00,240809,,*0C
$GPGGA,090911.000,5351.972,N,01040.407,E,1,00,0.0,9.100,M,0.0,M,,*6C
$GPGSA,A,3,,,,,,,,,,,,,0.0,0.0,0.0*32
$GPRMC,090912.000,A,5351.972,N,01040.407,E,0.00,0.00,240809,,*0F
$GPGGA,090912.000,5351.972,N,01040.407,E,1,00,0.0,8.520,M,0.0,M,,*68
$GPGSA,A,3,,,,,,,,,,,,,0.0,0.0,0.0*32
$GPRMC,090914.000,A,5351.973,N,01040.409,E,0.00,0.00,240809,,*06
$GPGGA,090914.000,5351.973,N,01040.409,E,1,00,0.0,7.580,M,0.0,M,,*64
$GPGSA,A,3,,,,,,,,,,,,,0.0,0.0,0.0*32
$GPRMC,000000.000,A,5351.973,N,01040.409,E,0.00,0.00,010070,,*02
$GPGGA,000000.000,5351.973,N,01040.409,E,1,00,0.0,7.580,M,0.0,M,,*61
$GPGSA,A,3,,,,,,,,,,,,,0.0,0.0,0.0*32
$GPRMC,090915.000,A,5351.972,N,01040.410,E,0.00,0.00,240809,,*0E
$GPGGA,090915.000,5351.972,N,01040.410,E,1,00,0.0,6.880,M,0.0,M,,*60
$GPGSA,A,3,,,,,,,,,,,,,0.0,0.0,0.0*32
$GPRMC,090916.000,A,5351.973,N,01040.411,E,0.00,0.00,240809,,*0D
$GPGGA,090916.000,5351.973,N,01040.411,E,1,00,0.0,6.410,M,0.0,M,,*66
$GPGSA,A,3,,,,,,,,,,,,,0.0,0.0,0.0*32
$GPRMC,090917.000,A,5351.973,N,01040.412,E,0.00,0.00,240809,,*0F
$GPGGA,090917.000,5351.973,N,01040.412,E,1,00,0.0,5.130,M,0.0,M,,*60
$GPGSA,A,3,,,,,,,,,,,,,0.0,0.0,0.0*32
$GPRMC,090918.000,A,5351.973,N,01040.413,E,0.00,0.00,240809,,*01
$GPGGA,090918.000,5351.973,N,01040.413,E,1,00,0.0,5.240,M,0.0,M,,*6A
$GPGSA,A,3,,,,,,,,,,,,,0.0,0.0,0.0*32
$GPRMC,090919.000,A,5351.973,N,01040.414,E,0.00,0.00,240809,,*07
$GPGGA,090919.000,5351.973,N,01040.414,E,1,00,0.0,4.770,M,0.0,M,,*6B
$GPGSA,A,3,,,,,,,,,,,,,0.0,0.0,0.0*32
$GPRMC,090920.000,A,5351.973,N,01040.415,E,0.00,0.00,240809,,*0C
$GPGGA,090920.000,5351.973,N,01040.415,E,1,00,0.0,4.300,M,0.0,M,,*63
$GPGSA,A,3,,,,,,,,,,,,,0.0,0.0,0.0*32
$GPRMC,090921.000,A,5351.973,N,01040.416,E,0.00,0.00,240809,,*0E
$GPGGA,090921.000,5351.973,N,01040.416,E,1,00,0.0,4.410,M,0.0,M,,*67
$GPGSA,A,3,,,,,,,,,,,,,0.0,0.0,0.0*32
$GPRMC,090922.000,A,5351.973,N,01040.417,E,0.00,0.00,240809,,*0C
$GPGGA,090922.000,5351.973,N,01040.417,E,1,00,0.0,4.520,M,0.0,M,,*67
$GPGSA,A,3,,,,,,,,,,,,,0.0,0.0,0.0*32
$GPRMC,090923.000,A,5351.973,N,01040.418,E,0.00,0.00,240809,,*02
$GPGGA,090923.000,5351.973,N,01040.418,E,1,00,0.0,4.630,M,0.0,M,,*6B
$GPGSA,A,3,,,,,,,,,,,,,0.0,0.0,0.0*32
$GPRMC,090924.000,A,5351.972,N,01040.419,E,0.00,0.00,240809,,*05
$GPGGA,090924.000,5351.972,N,01040.419,E,1,00,0.0,5.320,M,0.0,M,,*69
$GPGSA,A,3,,,,,,,,,,,,,0.0,0.0,0.0*32
$GPRMC,090925.000,A,5351.972,N,01040.420,E,0.00,0.00,240809,,*0E
$GPGGA,090925.000,5351.972,N,01040.420,E,1,00,0.0,5.530,M,0.0,M,,*65
$GPGSA,A,3,,,,,,,,,,,,,0.0,0.0,0.0*32
$GPRMC,090926.000,A,5351.972,N,01040.421,E,0.00,0.00,240809,,*0C
$GPGGA,090926.000,5351.972,N,01040.421,E,1,00,0.0,5.640,M,0.0,M,,*63
$GPGSA,A,3,,,,,,,,,,,,,0.0,0.0,0.0*32
$GPRMC,090927.000,A,5351.972,N,01040.422,E,0.00,0.00,240809,,*0E
$GPGGA,090927.000,5351.972,N,01040.422,E,1,00,0.0,6.560,M,0.0,M,,*63
$GPGSA,A,3,,,,,,,,,,,,,0.0,0.0,0.0*32
$GPRMC,090928.000,A,5351.972,N,01040.423,E,0.00,0.00,240809,,*00
$GPGGA,090928.000,5351.972,N,01040.423,E,1,00,0.0,6.670,M,0.0,M,,*6F
$GPGSA,A,3,,,,,,,,,,,,,0.0,0.0,0.0*32
$GPRMC,090929.000,A,5351.973,N,01040.424,E,0.00,0.00,240809,,*07
$GPGGA,090929.000,5351.973,N,01040.424,E,1,00,0.0,6.200,M,0.0,M,,*6B
$GPGSA,A,3,,,,,,,,,,,,,0.0,0.0,0.0*32
$GPRMC,090930.000,A,5351.973,N,01040.426,E,0.00,0.00,240809,,*0D
$GPGGA,090930.000,5351.973,N,01040.426,E,1,00,0.0,5.840,M,0.0,M,,*6C
$GPGSA,A,3,,,,,,,,,,,,,0.0,0.0,0.0*32
$GPRMC,090931.000,A,5351.973,N,01040.427,E,0.00,0.00,240809,,*0D
$GPGGA,090931.000,5351.973,N,01040.427,E,1,00,0.0,6.760,M,0.0,M,,*62
$GPGSA,A,3,,,,,,,,,,,,,0.0,0.0,0.0*32
$GPRMC,090932.000,A,5351.973,N,01040.428,E,0.00,0.00,240809,,*01
$GPGGA,090932.000,5351.973,N,01040.428,E,1,00,0.0,6.860,M,0.0,M,,*61
$GPGSA,A,3,,,,,,,,,,,,,0.0,0.0,0.0*32
$GPRMC,090933.000,A,5351.973,N,01040.429,E,0.00,0.00,240809,,*01
$GPGGA,090933.000,5351.973,N,01040.429,E,1,00,0.0,6.970,M,0.0,M,,*61
$GPGSA,A,3,,,,,,,,,,,,,0.0,0.0,0.0*32
$GPRMC,090934.000,A,5351.973,N,01040.430,E,0.00,0.00,240809,,*0E
$GPGGA,090934.000,5351.973,N,01040.430,E,1,00,0.0,7.080,M,0.0,M,,*69
$GPGSA,A,3,,,,,,,,,,,,,0.0,0.0,0.0*32
$GPRMC,090935.000,A,5351.973,N,01040.432,E,0.00,0.00,240809,,*0D
$GPGGA,090935.000,5351.973,N,01040.432,E,1,00,0.0,5.910,M,0.0,M,,*68
$GPGSA,A,3,,,,,,,,,,,,,0.0,0.0,0.0*32
$GPRMC,090936.000,A,5351.974,N,01040.433,E,0.00,0.00,240809,,*08
$GPGGA,090936.000,5351.974,N,01040.433,E,1,00,0.0,6.250,M,0.0,M,,*61
$GPGSA,A,3,,,,,,,,,,,,,0.0,0.0,0.0*32
$GPRMC,090937.000,A,5351.974,N,01040.434,E,0.00,0.00,240809,,*0E
$GPGGA,090937.000,5351.974,N,01040.434,E,1,00,0.0,6.360,M,0.0,M,,*65
$GPGSA,A,3,,,,,,,,,,,,,0.0,0.0,0.0*32
$GPRMC,090938.000,A,5351.973,N,01040.435,E,0.00,0.00,240809,,*07
$GPGGA,090938.000,5351.973,N,01040.435,E,1,00,0.0,6.470,M,0.0,M,,*6A
$GPGSA,A,3,,,,,,,,,,,,,0.0,0.0,0.0*32
$GPRMC,090939.000,A,5351.974,N,01040.437,E,0.00,0.00,240809,,*03
$GPGGA,090939.000,5351.974,N,01040.437,E,1,00,0.0,6.110,M,0.0,M,,*6D
$GPGSA,A,3,,,,,,,,,,,,,0.0,0.0,0.0*32
$GPRMC,090940.000,A,5351.974,N,01040.437,E,0.00,0.00,240809,,*0D
$GPGGA,090940.000,5351.974,N,01040.437,E,1,00,0.0,7.030,M,0.0,M,,*61
$GPGSA,A,3,,,,,,,,,,,,,0.0,0.0,0.0*32
$GPRMC,090941.000,A,5351.974,N,01040.439,E,0.00,0.00,240809,,*02
$GPGGA,090941.000,5351.974,N,01040.439,E,1,00,0.0,7.240,M,0.0,M,,*6B
$GPGSA,A,3,,,,,,,,,,,,,0.0,0.0,0.0*32
$GPRMC,090942.000,A,5351.974,N,01040.440,E,0.00,0.00,240809,,*0F
$GPGGA,090942.000,5351.974,N,01040.440,E,1,00,0.0,7.580,M,0.0,M,,*6D
$GPGSA,A,3,,,,,,,,,,,,,0.0,0.0,0.0*32
$GPRMC,090943.000,A,5351.975,N,01040.442,E,0.00,0.00,240809,,*0D
$GPGGA,090943.000,5351.975,N,01040.442,E,1,00,0.0,8.610,M,0.0,M,,*6A
$GPGSA,A,3,,,,,,,,,,,,,0.0,0.0,0.0*32
$GPRMC,090944.000,A,5351.974,N,01040.443,E,0.00,0.00,240809,,*0A
$GPGGA,090944.000,5351.974,N,01040.443,E,1,00,0.0,10.100,M,0.0,M,,*52
$GPGSA,A,3,,,,,,,,,,,,,0.0,0.0,0.0*32
$GPRMC,090945.000,A,5351.974,N,01040.443,E,0.00,0.00,240809,,*0B
$GPGGA,090945.000,5351.974,N,01040.443,E,1,00,0.0,9.300,M,0.0,M,,*69
$GPGSA,A,3,,,,,,,,,,,,,0.0,0.0,0.0*32
$GPRMC,090946.000,A,5351.973,N,01040.443,E,0.00,0.00,240809,,*0F
$GPGGA,090946.000,5351.973,N,01040.443,E,1,00,0.0,9.070,M,0.0,M,,*69
$GPGSA,A,3,,,,,,,,,,,,,0.0,0.0,0.0*32
$GPRMC,090947.000,A,5351.972,N,01040.443,E,0.00,0.00,240809,,*0F
$GPGGA,090947.000,5351.972,N,01040.443,E,1,00,0.0,9.530,M,0.0,M,,*68
$GPGSA,A,3,,,,,,,,,,,,,0.0,0.0,0.0*32
$GPRMC,090948.000,A,5351.971,N,01040.444,E,0.00,0.00,240809,,*04
$GPGGA,090948.000,5351.971,N,01040.444,E,1,00,0.0,9.990,M,0.0,M,,*65
$GPGSA,A,3,,,,,,,,,,,,,0.0,0.0,0.0*32
$GPRMC,090950.000,A,5351.969,N,01040.443,E,0.00,0.00,240809,,*03
$GPGGA,090950.000,5351.969,N,01040.443,E,1,00,0.0,8.730,M,0.0,M,,*67
$GPGSA,A,3,,,,,,,,,,,,,0.0,0.0,0.0*32
$GPRMC,090951.000,A,5351.968,N,01040.444,E,0.00,0.00,240809,,*04
$GPGGA,090951.000,5351.968,N,01040.444,E,1,00,0.0,8.610,M,0.0,M,,*63
$GPGSA,A,3,,,,,,,,,,,,,0.0,0.0,0.0*32
$GPRMC,090952.000,A,5351.968,N,01040.443,E,0.00,0.00,240809,,*00
$GPGGA,090952.000,5351.968,N,01040.443,E,1,00,0.0,7.110,M,0.0,M,,*6F
$GPGSA,A,3,,,,,,,,,,,,,0.0,0.0,0.0*32
$GPRMC,090953.000,A,5351.968,N,01040.444,E,0.00,0.00,240809,,*06
$GPGGA,090953.000,5351.968,N,01040.444,E,1,00,0.0,6.410,M,0.0,M,,*6D
$GPGSA,A,3,,,,,,,,,,,,,0.0,0.0,0.0*32
$GPRMC,090954.000,A,5351.967,N,01040.444,E,0.00,0.00,240809,,*0E
$GPGGA,090954.000,5351.967,N,01040.444,E,1,00,0.0,5.380,M,0.0,M,,*68
$GPGSA,A,3,,,,,,,,,,,,,0.0,0.0,0.0*32
$GPRMC,090956.000,A,5351.966,N,01040.445,E,0.00,0.00,240809,,*0C
$GPGGA,090956.000,5351.966,N,01040.445,E,1,00,0.0,4.450,M,0.0,M,,*61
$GPGSA,A,3,,,,,,,,,,,,,0.0,0.0,0.0*32
$GPRMC,090957.000,A,5351.965,N,01040.445,E,0.00,0.00,240809,,*0E
$GPGGA,090957.000,5351.965,N,01040.445,E,1,00,0.0,4.220,M,0.0,M,,*62
$GPGSA,A,3,,,,,,,,,,,,,0.0,0.0,0.0*32
$GPRMC,090958.000,A,5351.964,N,01040.445,E,0.00,0.00,240809,,*00
$GPGGA,090958.000,5351.964,N,01040.445,E,1,00,0.0,4.100,M,0.0,M,,*6D
$GPGSA,A,3,,,,,,,,,,,,,0.0,0.0,0.0*32
$GPRMC,090959.000,A,5351.964,N,01040.445,E,0.00,0.00,240809,,*01
$GPGGA,090959.000,5351.964,N,01040.445,E,1,00,0.0,3.290,M,0.0,M,,*61
$GPGSA,A,3,,,,,,,,,,,,,0.0,0.0,0.0*32
$GPRMC,091000.000,A,5351.963,N,01040.445,E,0.00,0.00,240809,,*02
$GPGGA,091000.000,5351.963,N,01040.445,E,1,00,0.0,3.070,M,0.0,M,,*6E
$GPGSA,A,3,,,,,,,,,,,,,0.0,0.0,0.0*32
$GPRMC,091001.000,A,5351.962,N,01040.446,E,0.00,0.00,240809,,*01
$GPGGA,091001.000,5351.962,N,01040.446,E,1,00,0.0,2.950,M,0.0,M,,*67
$GPGSA,A,3,,,,,,,,,,,,,0.0,0.0,0.0*32
$GPRMC,091002.000,A,5351.962,N,01040.447,E,0.00,0.00,240809,,*03
$GPGGA,091002.000,5351.962,N,01040.447,E,1,00,0.0,3.060,M,0.0,M,,*6E
$GPGSA,A,3,,,,,,,,,,,,,0.0,0.0,0.0*32
$GPRMC,091003.000,A,5351.962,N,01040.448,E,0.00,0.00,240809,,*0D
$GPGGA,091003.000,5351.962,N,01040.448,E,1,00,0.0,3.170,M,0.0,M,,*60
$GPGSA,A,3,,,,,,,,,,,,,0.0,0.0,0.0*32
$GPRMC,091004.000,A,5351.962,N,01040.449,E,0.00,0.00,240809,,*0B
$GPGGA,091004.000,5351.962,N,01040.449,E,1,00,0.0,1.890,M,0.0,M,,*63
$GPGSA,A,3,,,,,,,,,,,,,0.0,0.0,0.0*32
$GPRMC,091005.000,A,5351.962,N,01040.450,E,0.00,0.00,240809,,*02
$GPGGA,091005.000,5351.962,N,01040.450,E,1,00,0.0,2.580,M,0.0,M,,*65
$GPGSA,A,3,,,,,,,,,,,,,0.0,0.0,0.0*32
$GPRMC,091006.000,A,5351.962,N,01040.451,E,0.00,0.00,240809,,*00
$GPGGA,091006.000,5351.962,N,01040.451,E,1,00,0.0,2.110,M,0.0,M,,*6A
$GPGSA,A,3,,,,,,,,,,,,,0.0,0.0,0.0*32
$GPRMC,091007.000,A,5351.962,N,01040.452,E,0.00,0.00,240809,,*02
$GPGGA,091007.000,5351.962,N,01040.452,E,1,00,0.0,2.220,M,0.0,M,,*68
$GPGSA,A,3,,,,,,,,,,,,,0.0,0.0,0.0*32
$GPRMC,091008.000,A,5351.963,N,01040.453,E,0.00,0.00,240809,,*0D
$GPGGA,091008.000,5351.963,N,01040.453,E,1,00,0.0,1.170,M,0.0,M,,*62
$GPGSA,A,3,,,,,,,,,,,,,0.0,0.0,0.0*32
$GPRMC,091009.000,A,5351.963,N,01040.454,E,0.00,0.00,240809,,*0B
$GPGGA,091009.000,5351.963,N,01040.454,E,1,00,0.0,-0.110,M,0.0,M,,*4E
$GPGSA,A,3,,,,,,,,,,,,,0.0,0.0,0.0*32
$GPRMC,091010.000,A,5351.963,N,01040.455,E,0.00,0.00,240809,,*02
$GPGGA,091010.000,5351.963,N,01040.455,E,1,00,0.0,-0.580,M,0.0,M,,*4A
$GPGSA,A,3,,,,,,,,,,,,,0.0,0.0,0.0*32
$GPRMC,091011.000,A,5351.963,N,01040.456,E,0.00,0.00,240809,,*00
$GPGGA,091011.000,5351.963,N,01040.456,E,1,00,0.0,-1.050,M,0.0,M,,*41
$GPGSA,A,3,,,,,,,,,,,,,0.0,0.0,0.0*32
$GPRMC,091012.000,A,5351.964,N,01040.457,E,0.00,0.00,240809,,*05
$GPGGA,091012.000,5351.964,N,01040.457,E,1,00,0.0,-1.520,M,0.0,M,,*46
$GPGSA,A,3,,,,,,,,,,,,,0.0,0.0,0.0*32
$GPRMC,091014.000,A,5351.963,N,01040.459,E,0.00,0.00,240809,,*0A
$GPGGA,091014.000,5351.963,N,01040.459,E,1,00,0.0,-2.110,M,0.0,M,,*4D
$GPGSA,A,3,,,,,,,,,,,,,0.0,0.0,0.0*32
$GPRMC,000000.000,A,5351.963,N,01040.459,E,0.00,0.00,010070,,*06
$GPGGA,000000.000,5351.963,N,01040.459,E,1,00,0.0,-2.110,M,0.0,M,,*40
$GPGSA,A,3,,,,,,,,,,,,,0.0,0.0,0.0*32
$GPRMC,091015.000,A,5351.963,N,01040.460,E,0.00,0.00,240809,,*01
$GPGGA,091015.000,5351.963,N,01040.460,E,1,00,0.0,-2.810,M,0.0,M,,*4F
$GPGSA,A,3,,,,,,,,,,,,,0.0,0.0,0.0*32
$GPRMC,091016.000,A,5351.962,N,01040.460,E,0.00,0.00,240809,,*03
$GPGGA,091016.000,5351.962,N,01040.460,E,1,00,0.0,-2.930,M,0.0,M,,*4E
$GPGSA,A,3,,,,,,,,,,,,,0.0,0.0,0.0*32
$GPRMC,091017.000,A,5351.961,N,01040.461,E,0.00,0.00,240809,,*00
$GPGGA,091017.000,5351.961,N,01040.461,E,1,00,0.0,-3.050,M,0.0,M,,*43
$GPGSA,A,3,,,,,,,,,,,,,0.0,0.0,0.0*32
$GPRMC,091018.000,A,5351.961,N,01040.462,E,0.00,0.00,240809,,*0C
$GPGGA,091018.000,5351.961,N,01040.462,E,1,00,0.0,-2.360,M,0.0,M,,*4E
$GPGSA,A,3,,,,,,,,,,,,,0.0,0.0,0.0*32
$GPRMC,091020.000,A,5351.960,N,01040.464,E,0.00,0.00,240809,,*00
$GPGGA,091020.000,5351.960,N,01040.464,E,1,00,0.0,-3.180,M,0.0,M,,*4F
$GPGSA,A,3,,,,,,,,,,,,,0.0,0.0,0.0*32
$GPRMC,091021.000,A,5351.959,N,01040.464,E,0.00,0.00,240809,,*0B
$GPGGA,091021.000,5351.959,N,01040.464,E,1,00,0.0,-2.490,M,0.0,M,,*41
$GPGSA,A,3,,,,,,,,,,,,,0.0,0.0,0.0*32
$GPRMC,091022.000,A,5351.958,N,01040.464,E,0.00,0.00,240809,,*09
$GPGGA,091022.000,5351.958,N,01040.464,E,1,00,0.0,-2.720,M,0.0,M,,*4B
$GPGSA,A,3,,,,,,,,,,,,,0.0,0.0,0.0*32
$GPRMC,091023.000,A,5351.957,N,01040.465,E,0.00,0.00,240809,,*06
$GPGGA,091023.000,5351.957,N,01040.465,E,1,00,0.0,-2.830,M,0.0,M,,*4A
$GPGSA,A,3,,,,,,,,,,,,,0.0,0.0,0.0*32
$GPRMC,091024.000,A,5351.957,N,01040.465,E,0.00,0.00,240809,,*01
$GPGGA,091024.000,5351.957,N,01040.465,E,1,00,0.0,-3.060,M,0.0,M,,*41
$GPGSA,A,3,,,,,,,,,,,,,0.0,0.0,0.0*32
$GPRMC,091025.000,A,5351.956,N,01040.465,E,0.00,0.00,240809,,*01
$GPGGA,091025.000,5351.956,N,01040.465,E,1,00,0.0,-2.370,M,0.0,M,,*42
$GPGSA,A,3,,,,,,,,,,,,,0.0,0.0,0.0*32
$GPRMC,091026.000,A,5351.955,N,01040.466,E,0.00,0.00,240809,,*02
$GPGGA,091026.000,5351.955,N,01040.466,E,1,00,0.0,-2.490,M,0.0,M,,*48
$GPGSA,A,3,,,,,,,,,,,,,0.0,0.0,0.0*32
$GPRMC,091027.000,A,5351.955,N,01040.466,E,0.00,0.00,240809,,*03
$GPGGA,091027.000,5351.955,N,01040.466,E,1,00,0.0,-1.910,M,0.0,M,,*4F
$GPGSA,A,3,,,,,,,,,,,,,0.0,0.0,0.0*32
$GPRMC,091028.000,A,5351.954,N,01040.466,E,0.00,0.00,240809,,*0D
$GPGGA,091028.000,5351.954,N,01040.466,E,1,00,0.0,-0.650,M,0.0,M,,*4B
$GPGSA,A,3,,,,,,,,,,,,,0.0,0.0,0.0*32
$GPRMC,091029.000,A,5351.953,N,01040.466,E,0.00,0.00,240809,,*0B
$GPGGA,091029.000,5351.953,N,01040.466,E,1,00,0.0,-0.870,M,0.0,M,,*41
$GPGSA,A,3,,,,,,,,,,,,,0.0,0.0,0.0*32
$GPRMC,091030.000,A,5351.953,N,01040.468,E,0.00,0.00,240809,,*0D
$GPGGA,091030.000,5351.953,N,01040.468,E,1,00,0.0,-0.080,M,0.0,M,,*40
$GPGSA,A,3,,,,,,,,,,,,,0.0,0.0,0.0*32
$GPRMC,091031.000,A,5351.952,N,01040.468,E,0.00,0.00,240809,,*0D
$GPGGA,091031.000,5351.952,N,01040.468,E,1,00,0.0,1.190,M,0.0,M,,*6C
$GPGSA,A,3,,,,,,,,,,,,,0.0,0.0,0.0*32
$GPRMC,091032.000,A,5351.951,N,01040.469,E,0.00,0.00,240809,,*0C
$GPGGA,091032.000,5351.951,N,01040.469,E,1,00,0.0,1.880,M,0.0,M,,*65
$GPGSA,A,3,,,,,,,,,,,,,0.0,0.0,0.0*32
$GPRMC,091033.000,A,5351.950,N,01040.471,E,0.00,0.00,240809,,*05
$GPGGA,091033.000,5351.950,N,01040.471,E,1,00,0.0,1.870,M,0.0,M,,*63
$GPGSA,A,3,,,,,,,,,,,,,0.0,0.0,0.0*32
$GPRMC,091034.000,A,5351.950,N,01040.472,E,0.00,0.00,240809,,*01
$GPGGA,091034.000,5351.950,N,01040.472,E,1,00,0.0,2.560,M,0.0,M,,*68
$GPGSA,A,3,,,,,,,,,,,,,0.0,0.0,0.0*32
$GPRMC,091035.000,A,5351.949,N,01040.472,E,0.00,0.00,240809,,*08
$GPGGA,091035.000,5351.949,N,01040.472,E,1,00,0.0,3.250,M,0.0,M,,*64
$GPGSA,A,3,,,,,,,,,,,,,0.0,0.0,0.0*32
$GPRMC,091036.000,A,5351.949,N,01040.473,E,0.00,0.00,240809,,*0A
$GPGGA,091036.000,5351.949,N,01040.473,E,1,00,0.0,3.360,M,0.0,M,,*64
$GPGSA,A,3,,,,,,,,,,,,,0.0,0.0,0.0*32
$GPRMC,091038.000,A,5351.948,N,01040.476,E,0.00,0.00,240809,,*00
$GPGGA,091038.000,5351.948,N,01040.476,E,1,00,0.0,4.840,M,0.0,M,,*60
$GPGSA,A,3,,,,,,,,,,,,,0.0,0.0,0.0*32
$GPRMC,091039.000,A,5351.948,N,01040.477,E,0.00,0.00,240809,,*00
$GPGGA,091039.000,5351.948,N,01040.477,E,1,00,0.0,6.450,M,0.0,M,,*6F
$GPGSA,A,3,,,,,,,,,,,,,0.0,0.0,0.0*32
$GPRMC,091040.000,A,5351.948,N,01040.479,E,0.00,0.00,240809,,*00
$GPGGA,091040.000,5351.948,N,01040.479,E,1,00,0.0,8.060,M,0.0,M,,*66
$GPGSA,A,3,,,,,,,,,,,,,0.0,0.0,0.0*32
$GPRMC,091041.000,A,5351.948,N,01040.480,E,0.00,0.00,240809,,*07
$GPGGA,091041.000,5351.948,N,01040.480,E,1,00,0.0,8.970,M,0.0,M,,*69
$GPGSA,A,3,,,,,,,,,,,,,0.0,0.0,0.0*32
$GPRMC,091042.000,A,5351.947,N,01040.481,E,0.00,0.00,240809,,*0A
$GPGGA,091042.000,5351.947,N,01040.481,E,1,00,0.0,11.970,M,0.0,M,,*5C
$GPGSA,A,3,,,,,,,,,,,,,0.0,0.0,0.0*32
$GPRMC,091043.000,A,5351.948,N,01040.482,E,0.00,0.00,240809,,*07
$GPGGA,091043.000,5351.948,N,01040.482,E,1,00,0.0,14.270,M,0.0,M,,*5F
$GPGSA,A,3,,,,,,,,,,,,,0.0,0.0,0.0*32
$GPRMC,091044.000,A,5351.947,N,01040.483,E,0.00,0.00,240809,,*0E
$GPGGA,091044.000,5351.947,N,01040.483,E,1,00,0.0,17.260,M,0.0,M,,*54
$GPGSA,A,3,,,,,,,,,,,,,0.0,0.0,0.0*32
$GPRMC,000000.000,A,5351.947,N,01040.483,E,0.00,0.00,010070,,*07
$GPGGA,000000.000,5351.947,N,01040.483,E,1,00,0.0,17.260,M,0.0,M,,*5C
$GPGSA,A,3,,,,,,,,,,,,,0.0,0.0,0.0*32
$GPRMC,091045.000,A,5351.947,N,01040.485,E,0.00,0.00,240809,,*09
$GPGGA,091045.000,5351.947,N,01040.485,E,1,00,0.0,20.250,M,0.0,M,,*54
$GPGSA,A,3,,,,,,,,,,,,,0.0,0.0,0.0*32
$GPRMC,091046.000,A,5351.946,N,01040.486,E,0.00,0.00,240809,,*08
$GPGGA,091046.000,5351.946,N,01040.486,E,1,00,0.0,24.630,M,0.0,M,,*53
$GPGSA,A,3,,,,,,,,,,,,,0.0,0.0,0.0*32
$GPRMC,091047.000,A,5351.946,N,01040.487,E,0.00,0.00,240809,,*08
$GPGGA,091047.000,5351.946,N,01040.487,E,1,00,0.0,28.330,M,0.0,M,,*5A
$GPGSA,A,3,,,,,,,,,,,,,0.0,0.0,0.0*32
$GPRMC,091048.000,A,5351.946,N,01040.487,E,0.00,0.00,240809,,*07
$GPGGA,091048.000,5351.946,N,01040.487,E,1,00,0.0,31.210,M,0.0,M,,*5E
$GPGSA,A,3,,,,,,,,,,,,,0.0,0.0,0.0*32
$GPRMC,091050.000,A,5351.945,N,01040.490,E,0.00,0.00,240809,,*0B
$GPGGA,091050.000,5351.945,N,01040.490,E,1,00,0.0,35.810,M,0.0,M,,*5C
$GPGSA,A,3,,,,,,,,,,,,,0.0,0.0,0.0*32
$GPRMC,091051.000,A,5351.946,N,01040.492,E,0.00,0.00,240809,,*0B
$GPGGA,091051.000,5351.946,N,01040.492,E,1,00,0.0,37.640,M,0.0,M,,*55
$GPGSA,A,3,,,,,,,,,,,,,0.0,0.0,0.0*32
$GPRMC,091052.000,A,5351.946,N,01040.494,E,0.00,0.00,240809,,*0E
$GPGGA,091052.000,5351.946,N,01040.494,E,1,00,0.0,38.670,M,0.0,M,,*5C
$GPGSA,A,3,,,,,,,,,,,,,0.0,0.0,0.0*32
$GPRMC,091053.000,A,5351.946,N,01040.495,E,0.00,0.00,240809,,*0E
$GPGGA,091053.000,5351.946,N,01040.495,E,1,00,0.0,39.580,M,0.0,M,,*51
$GPGSA,A,3,,,,,,,,,,,,,0.0,0.0,0.0*32
$GPRMC,091054.000,A,5351.947,N,01040.496,E,0.00,0.00,240809,,*0B
$GPGGA,091054.000,5351.947,N,01040.496,E,1,00,0.0,38.530,M,0.0,M,,*5E
$GPGSA,A,3,,,,,,,,,,,,,0.0,0.0,0.0*32
$GPRMC,091055.000,A,5351.949,N,01040.496,E,0.00,0.00,240809,,*04
$GPGGA,091055.000,5351.949,N,01040.496,E,1,00,0.0,37.600,M,0.0,M,,*5E
$GPGSA,A,3,,,,,,,,,,,,,0.0,0.0,0.0*32
$GPRMC,091056.000,A,5351.949,N,01040.497,E,0.00,0.00,240809,,*06
$GPGGA,091056.000,5351.949,N,01040.497,E,1,00,0.0,36.440,M,0.0,M,,*5B
$GPGSA,A,3,,,,,,,,,,,,,0.0,0.0,0.0*32
$GPRMC,091057.000,A,5351.951,N,01040.496,E,0.00,0.00,240809,,*0F
$GPGGA,091057.000,5351.951,N,01040.496,E,1,00,0.0,35.400,M,0.0,M,,*55
$GPGSA,A,3,,,,,,,,,,,,,0.0,0.0,0.0*32
$GPRMC,091058.000,A,5351.953,N,01040.497,E,0.00,0.00,240809,,*03
$GPGGA,091058.000,5351.953,N,01040.497,E,1,00,0.0,34.470,M,0.0,M,,*5F
$GPGSA,A,3,,,,,,,,,,,,,0.0,0.0,0.0*32
$GPRMC,091059.000,A,5351.954,N,01040.497,E,0.00,0.00,240809,,*05
$GPGGA,091059.000,5351.954,N,01040.497,E,1,00,0.0,33.320,M,0.0,M,,*5C
$GPGSA,A,3,,,,,,,,,,,,,0.0,0.0,0.0*32
$GPRMC,091100.000,A,5351.954,N,01040.498,E,0.00,0.00,240809,,*07
$GPGGA,091100.000,5351.954,N,01040.498,E,1,00,0.0,32.270,M,0.0,M,,*5B
$GPGSA,A,3,,,,,,,,,,,,,0.0,0.0,0.0*32
$GPRMC,091101.000,A,5351.956,N,01040.499,E,0.00,0.00,240809,,*05
$GPGGA,091101.000,5351.956,N,01040.499,E,1,00,0.0,31.910,M,0.0,M,,*57
$GPGSA,A,3,,,,,,,,,,,,,0.0,0.0,0.0*32
$GPRMC,091102.000,A,5351.957,N,01040.499,E,0.00,0.00,240809,,*07
$GPGGA,091102.000,5351.957,N,01040.499,E,1,00,0.0,30.180,M,0.0,M,,*55
$GPGSA,A,3,,,,,,,,,,,,,0.0,0.0,0.0*32
$GPRMC,091103.000,A,5351.958,N,01040.500,E,0.00,0.00,240809,,*08
$GPGGA,091103.000,5351.958,N,01040.500,E,1,00,0.0,29.020,M,0.0,M,,*59
$GPGSA,A,3,,,,,,,,,,,,,0.0,0.0,0.0*32
$GPRMC,091104.000,A,5351.959,N,01040.500,E,0.00,0.00,240809,,*0E
$GPGGA,091104.000,5351.959,N,01040.500,E,1,00,0.0,26.470,M,0.0,M,,*51
$GPGSA,A,3,,,,,,,,,,,,,0.0,0.0,0.0*32
$GPRMC,091105.000,A,5351.960,N,01040.501,E,0.00,0.00,240809,,*04
$GPGGA,091105.000,5351.960,N,01040.501,E,1,00,0.0,25.310,M,0.0,M,,*59
$GPGSA,A,3,,,,,,,,,,,,,0.0,0.0,0.0*32
$GPRMC,091106.000,A,5351.960,N,01040.501,E,0.00,0.00,240809,,*07
$GPGGA,091106.000,5351.960,N,01040.501,E,1,00,0.0,23.350,M,0.0,M,,*58
$GPGSA,A,3,,,,,,,,,,,,,0.0,0.0,0.0*32
$GPRMC,091107.000,A,5351.961,N,01040.501,E,0.00,0.00,240809,,*07
$GPGGA,091107.000,5351.961,N,01040.501,E,1,00,0.0,22.770,M,0.0,M,,*5F
$GPGSA,A,3,,,,,,,,,,,,,0.0,0.0,0.0*32
$GPRMC,091108.000,A,5351.961,N,01040.502,E,0.00,0.00,240809,,*0B
$GPGGA,091108.000,5351.961,N,01040.502,E,1,00,0.0,22.300,M,0.0,M,,*50
$GPGSA,A,3,,,,,,,,,,,,,0.0,0.0,0.0*32
$GPRMC,091109.000,A,5351.961,N,01040.502,E,0.00,0.00,240809,,*0A
$GPGGA,091109.000,5351.961,N,01040.502,E,1,00,0.0,20.330,M,0.0,M,,*50
$GPGSA,A,3,,,,,,,,,,,,,0.0,0.0,0.0*32
$GPRMC,091110.000,A,5351.962,N,01040.503,E,0.00,0.00,240809,,*00
$GPGGA,091110.000,5351.962,N,01040.503,E,1,00,0.0,19.750,M,0.0,M,,*52
$GPGSA,A,3,,,,,,,,,,,,,0.0,0.0,0.0*32
$GPRMC,091111.000,A,5351.962,N,01040.503,E,0.00,0.00,240809,,*01
$GPGGA,091111.000,5351.962,N,01040.503,E,1,00,0.0,18.360,M,0.0,M,,*55
$GPGSA,A,3,,,,,,,,,,,,,0.0,0.0,0.0*32
$GPRMC,091112.000,A,5351.963,N,01040.504,E,0.00,0.00,240809,,*04
$GPGGA,091112.000,5351.963,N,01040.504,E,1,00,0.0,17.310,M,0.0,M,,*58
$GPGSA,A,3,,,,,,,,,,,,,0.0,0.0,0.0*32
$GPRMC,091114.000,A,5351.963,N,01040.505,E,0.00,0.00,240809,,*03
$GPGGA,091114.000,5351.963,N,01040.505,E,1,00,0.0,15.460,M,0.0,M,,*5D
$GPGSA,A,3,,,,,,,,,,,,,0.0,0.0,0.0*32
$GPRMC,000000.000,A,5351.963,N,01040.505,E,0.00,0.00,010070,,*0E
$GPGGA,000000.000,5351.963,N,01040.505,E,1,00,0.0,15.460,M,0.0,M,,*51
$GPGSA,A,3,,,,,,,,,,,,,0.0,0.0,0.0*32
$GPRMC,091115.000,A,5351.964,N,01040.505,E,0.00,0.00,240809,,*05
$GPGGA,091115.000,5351.964,N,01040.505,E,1,00,0.0,14.880,M,0.0,M,,*58
$GPGSA,A,3,,,,,,,,,,,,,0.0,0.0,0.0*32
$GPRMC,091116.000,A,5351.964,N,01040.507,E,0.00,0.00,240809,,*04
$GPGGA,091116.000,5351.964,N,01040.507,E,1,00,0.0,13.830,M,0.0,M,,*55
$GPGSA,A,3,,,,,,,,,,,,,0.0,0.0,0.0*32
$GPRMC,091117.000,A,5351.965,N,01040.508,E,0.00,0.00,240809,,*0B
$GPGGA,091117.000,5351.965,N,01040.508,E,1,00,0.0,13.360,M,0.0,M,,*54
$GPGSA,A,3,,,,,,,,,,,,,0.0,0.0,0.0*32
$GPRMC,091118.000,A,5351.965,N,01040.509,E,0.00,0.00,240809,,*05
$GPGGA,091118.000,5351.965,N,01040.509,E,1,00,0.0,12.080,M,0.0,M,,*56
$GPGSA,A,3,,,,,,,,,,,,,0.0,0.0,0.0*32
$GPRMC,091119.000,A,5351.965,N,01040.509,E,0.00,0.00,240809,,*04
$GPGGA,091119.000,5351.965,N,01040.509,E,1,00,0.0,11.500,M,0.0,M,,*59
$GPGSA,A,3,,,,,,,,,,,,,0.0,0.0,0.0*32
$GPRMC,091120.000,A,5351.966,N,01040.510,E,0.00,0.00,240809,,*05
$GPGGA,091120.000,5351.966,N,01040.510,E,1,00,0.0,11.840,M,0.0,M,,*51
$GPGSA,A,3,,,,,,,,,,,,,0.0,0.0,0.0*32
$GPRMC,091121.000,A,5351.966,N,01040.510,E,0.00,0.00,240809,,*04
$GPGGA,091121.000,5351.966,N,01040.510,E,1,00,0.0,11.260,M,0.0,M,,*58
$GPGSA,A,3,,,,,,,,,,,,,0.0,0.0,0.0*32
$GPRMC,091122.000,A,5351.967,N,01040.511,E,0.00,0.00,240809,,*07
$GPGGA,091122.000,5351.967,N,01040.511,E,1,00,0.0,10.790,M,0.0,M,,*50
$GPGSA,A,3,,,,,,,,,,,,,0.0,0.0,0.0*32
$GPRMC,091123.000,A,5351.967,N,01040.512,E,0.00,0.00,240809,,*05
$GPGGA,091123.000,5351.967,N,01040.512,E,1,00,0.0,10.320,M,0.0,M,,*5D
$GPGSA,A,3,,,,,,,,,,,,,0.0,0.0,0.0*32
$GPRMC,091124.000,A,5351.967,N,01040.513,E,0.00,0.00,240809,,*03
$GPGGA,091124.000,5351.967,N,01040.513,E,1,00,0.0,9.850,M,0.0,M,,*6F
$GPGSA,A,3,,,,,,,,,,,,,0.0,0.0,0.0*32
$GPRMC,091126.000,A,5351.968,N,01040.515,E,0.00,0.00,240809,,*08
$GPGGA,091126.000,5351.968,N,01040.515,E,1,00,0.0,10.290,M,0.0,M,,*5A
$GPGSA,A,3,,,,,,,,,,,,,0.0,0.0,0.0*32
$GPRMC,091127.000,A,5351.968,N,01040.516,E,0.00,0.00,240809,,*0A
$GPGGA,091127.000,5351.968,N,01040.516,E,1,00,0.0,10.400,M,0.0,M,,*57
$GPGSA,A,3,,,,,,,,,,,,,0.0,0.0,0.0*32
$GPRMC,091128.000,A,5351.968,N,01040.517,E,0.00,0.00,240809,,*04
$GPGGA,091128.000,5351.968,N,01040.517,E,1,00,0.0,9.930,M,0.0,M,,*6F
$GPGSA,A,3,,,,,,,,,,,,,0.0,0.0,0.0*32
$GPRMC,091129.000,A,5351.969,N,01040.518,E,0.00,0.00,240809,,*0B
$GPGGA,091129.000,5351.969,N,01040.518,E,1,00,0.0,9.460,M,0.0,M,,*68
$GPGSA,A,3,,,,,,,,,,,,,0.0,0.0,0.0*32
$GPRMC,091130.000,A,5351.969,N,01040.519,E,0.00,0.00,240809,,*02
$GPGGA,091130.000,5351.969,N,01040.519,E,1,00,0.0,8.990,M,0.0,M,,*62
$GPGSA,A,3,,,,,,,,,,,,,0.0,0.0,0.0*32
$GPRMC,091131.000,A,5351.969,N,01040.521,E,0.00,0.00,240809,,*08
$GPGGA,091131.000,5351.969,N,01040.521,E,1,00,0.0,8.520,M,0.0,M,,*6F
$GPGSA,A,3,,,,,,,,,,,,,0.0,0.0,0.0*32
$GPRMC,091132.000,A,5351.969,N,01040.521,E,0.00,0.00,240809,,*0B
$GPGGA,091132.000,5351.969,N,01040.521,E,1,00,0.0,8.630,M,0.0,M,,*6E
$GPGSA,A,3,,,,,,,,,,,,,0.0,0.0,0.0*32
$GPRMC,091133.000,A,5351.969,N,01040.522,E,0.00,0.00,240809,,*09
$GPGGA,091133.000,5351.969,N,01040.522,E,1,00,0.0,8.160,M,0.0,M,,*6E
$GPGSA,A,3,,,,,,,,,,,,,0.0,0.0,0.0*32
$GPRMC,091134.000,A,5351.970,N,01040.524,E,0.00,0.00,240809,,*00
$GPGGA,091134.000,5351.970,N,01040.524,E,1,00,0.0,7.690,M,0.0,M,,*60
$GPGSA,A,3,,,,,,,,,,,,,0.0,0.0,0.0*32
$GPRMC,091135.000,A,5351.970,N,01040.525,E,0.00,0.00,240809,,*00
$GPGGA,091135.000,5351.970,N,01040.525,E,1,00,0.0,8.030,M,0.0,M,,*63
$GPGSA,A,3,,,,,,,,,,,,,0.0,0.0,0.0*32
$GPRMC,091136.000,A,5351.970,N,01040.525,E,0.00,0.00,240809,,*03
$GPGGA,091136.000,5351.970,N,01040.525,E,1,00,0.0,8.140,M,0.0,M,,*66
$GPGSA,A,3,,,,,,,,,,,,,0.0,0.0,0.0*32
$GPRMC,091137.000,A,5351.970,N,01040.527,E,0.00,0.00,240809,,*00
$GPGGA,091137.000,5351.970,N,01040.527,E,1,00,0.0,6.860,M,0.0,M,,*60
$GPGSA,A,3,,,,,,,,,,,,,0.0,0.0,0.0*32
$GPRMC,091138.000,A,5351.970,N,01040.527,E,0.00,0.00,240809,,*0F
$GPGGA,091138.000,5351.970,N,01040.527,E,1,00,0.0,6.970,M,0.0,M,,*6F
$GPGSA,A,3,,,,,,,,,,,,,0.0,0.0,0.0*32
$GPRMC,091139.000,A,5351.971,N,01040.529,E,0.00,0.00,240809,,*01
$GPGGA,091139.000,5351.971,N,01040.529,E,1,00,0.0,6.500,M,0.0,M,,*6A
$GPGSA,A,3,,,,,,,,,,,,,0.0,0.0,0.0*32
$GPRMC,091140.000,A,5351.971,N,01040.529,E,0.00,0.00,240809,,*0F
$GPGGA,091140.000,5351.971,N,01040.529,E,1,00,0.0,6.610,M,0.0,M,,*66
$GPGSA,A,3,,,,,,,,,,,,,0.0,0.0,0.0*32
$GPRMC,091141.000,A,5351.970,N,01040.531,E,0.00,0.00,240809,,*06
$GPGGA,091141.000,5351.970,N,01040.531,E,1,00,0.0,6.020,M,0.0,M,,*6A
$GPGSA,A,3,,,,,,,,,,,,,0.0,0.0,0.0*32
$GPRMC,091142.000,A,5351.970,N,01040.532,E,0.00,0.00,240809,,*06
$GPGGA,091142.000,5351.970,N,01040.532,E,1,00,0.0,6.130,M,0.0,M,,*6A
$GPGSA,A,3,,,,,,,,,,,,,0.0,0.0,0.0*32
$GPRMC,091144.000,A,5351.969,N,01040.535,E,0.00,0.00,240809,,*0F
$GPGGA,091144.000,5351.969,N,01040.535,E,1,00,0.0,5.650,M,0.0,M,,*61
$GPGSA,A,3,,,,,,,,,,,,,0.0,0.0,0.0*32
$GPRMC,000000.000,A,5351.969,N,01040.535,E,0.00,0.00,010070,,*07
$GPGGA,000000.000,5351.969,N,01040.535,E,1,00,0.0,5.650,M,0.0,M,,*68
$GPGSA,A,3,,,,,,,,,,,,,0.0,0.0,0.0*32
$GPRMC,091145.000,A,5351.969,N,01040.536,E,0.00,0.00,240809,,*0D
$GPGGA,091145.000,5351.969,N,01040.536,E,1,00,0.0,5.760,M,0.0,M,,*61
$GPGSA,A,3,,,,,,,,,,,,,0.0,0.0,0.0*32
$GPRMC,091146.000,A,5351.969,N,01040.537,E,0.00,0.00,240809,,*0F
$GPGGA,091146.000,5351.969,N,01040.537,E,1,00,0.0,5.980,M,0.0,M,,*63
$GPGSA,A,3,,,,,,,,,,,,,0.0,0.0,0.0*32
$GPRMC,091147.000,A,5351.969,N,01040.538,E,0.00,0.00,240809,,*01
$GPGGA,091147.000,5351.969,N,01040.538,E,1,00,0.0,6.080,M,0.0,M,,*67
$GPGSA,A,3,,,,,,,,,,,,,0.0,0.0,0.0*32
$GPRMC,091148.000,A,5351.969,N,01040.539,E,0.00,0.00,240809,,*0F
$GPGGA,091148.000,5351.969,N,01040.539,E,1,00,0.0,6.190,M,0.0,M,,*69
$GPGSA,A,3,,,,,,,,,,,,,0.0,0.0,0.0*32
$GPRMC,091149.000,A,5351.969,N,01040.541,E,0.00,0.00,240809,,*01
$GPGGA,091149.000,5351.969,N,01040.541,E,1,00,0.0,6.410,M,0.0,M,,*6A
$GPGSA,A,3,,,,,,,,,,,,,0.0,0.0,0.0*32
$GPRMC,091150.000,A,5351.969,N,01040.542,E,0.00,0.00,240809,,*0A
$GPGGA,091150.000,5351.969,N,01040.542,E,1,00,0.0,5.710,M,0.0,M,,*61
$GPGSA,A,3,,,,,,,,,,,,,0.0,0.0,0.0*32
$GPRMC,091151.000,A,5351.968,N,01040.543,E,0.00,0.00,240809,,*0B
$GPGGA,091151.000,5351.968,N,01040.543,E,1,00,0.0,5.820,M,0.0,M,,*6C
$GPGSA,A,3,,,,,,,,,,,,,0.0,0.0,0.0*32
$GPRMC,091152.000,A,5351.968,N,01040.545,E,0.00,0.00,240809,,*0E
$GPGGA,091152.000,5351.968,N,01040.545,E,1,00,0.0,6.040,M,0.0,M,,*64
$GPGSA,A,3,,,,,,,,,,,,,0.0,0.0,0.0*32
$GPRMC,091153.000,A,5351.968,N,01040.546,E,0.00,0.00,240809,,*0C
$GPGGA,091153.000,5351.968,N,01040.546,E,1,00,0.0,6.150,M,0.0,M,,*66
$GPGSA,A,3,,,,,,,,,,,,,0.0,0.0,0.0*32
$GPRMC,091154.000,A,5351.968,N,01040.546,E,0.00,0.00,240809,,*0B
$GPGGA,091154.000,5351.968,N,01040.546,E,1,00,0.0,5.450,M,0.0,M,,*67
$GPGSA,A,3,,,,,,,,,,,,,0.0,0.0,0.0*32
$GPRMC,091155.000,A,5351.968,N,01040.547,E,0.00,0.00,240809,,*0B
$GPGGA,091155.000,5351.968,N,01040.547,E,1,00,0.0,5.560,M,0.0,M,,*65
$GPGSA,A,3,,,,,,,,,,,,,0.0,0.0,0.0*32
$GPRMC,091156.000,A,5351.968,N,01040.548,E,0.00,0.00,240809,,*07
$GPGGA,091156.000,5351.968,N,01040.548,E,1,00,0.0,5.670,M,0.0,M,,*6B
$GPGSA,A,3,,,,,,,,,,,,,0.0,0.0,0.0*32
$GPRMC,091157.000,A,5351.967,N,01040.550,E,0.00,0.00,240809,,*00
$GPGGA,091157.000,5351.967,N,01040.550,E,1,00,0.0,5.890,M,0.0,M,,*6C
$GPGSA,A,3,,,,,,,,,,,,,0.0,0.0,0.0*32
$GPRMC,091158.000,A,5351.967,N,01040.551,E,0.00,0.00,240809,,*0E
$GPGGA,091158.000,5351.967,N,01040.551,E,1,00,0.0,5.190,M,0.0,M,,*6B
$GPGSA,A,3,,,,,,,,,,,,,0.0,0.0,0.0*32
$GPRMC,091159.000,A,5351.967,N,01040.552,E,0.00,0.00,240809,,*0C
$GPGGA,091159.000,5351.967,N,01040.552,E,1,00,0.0,5.300,M,0.0,M,,*62
$GPGSA,A,3,,,,,,,,,,,,,0.0,0.0,0.0*32
$GPRMC,091200.000,A,5351.967,N,01040.554,E,0.00,0.00,240809,,*05
$GPGGA,091200.000,5351.967,N,01040.554,E,1,00,0.0,5.520,M,0.0,M,,*6F
$GPGSA,A,3,,,,,,,,,,,,,0.0,0.0,0.0*32
$GPRMC,091201.000,A,5351.967,N,01040.555,E,0.00,0.00,240809,,*05
$GPGGA,091201.000,5351.967,N,01040.555,E,1,00,0.0,5.050,M,0.0,M,,*6D
$GPGSA,A,3,,,,,,,,,,,,,0.0,0.0,0.0*32
$GPRMC,091202.000,A,5351.966,N,01040.555,E,0.00,0.00,240809,,*07
$GPGGA,091202.000,5351.966,N,01040.555,E,1,00,0.0,4.930,M,0.0,M,,*61
$GPGSA,A,3,,,,,,,,,,,,,0.0,0.0,0.0*32
$GPRMC,091203.000,A,5351.966,N,01040.556,E,0.00,0.00,240809,,*05
$GPGGA,091203.000,5351.966,N,01040.556,E,1,00,0.0,5.040,M,0.0,M,,*6C
$GPGSA,A,3,,,,,,,,,,,,,0.0,0.0,0.0*32
$GPRMC,091204.000,A,5351.966,N,01040.557,E,0.00,0.00,240809,,*03
$GPGGA,091204.000,5351.966,N,01040.557,E,1,00,0.0,5.150,M,0.0,M,,*6A
$GPGSA,A,3,,,,,,,,,,,,,0.0,0.0,0.0*32
$GPRMC,091205.000,A,5351.966,N,01040.559,E,0.00,0.00,240809,,*0C
$GPGGA,091205.000,5351.966,N,01040.559,E,1,00,0.0,5.370,M,0.0,M,,*65
$GPGSA,A,3,,,,,,,,,,,,,0.0,0.0,0.0*32
$GPRMC,091206.000,A,5351.966,N,01040.560,E,0.00,0.00,240809,,*05
$GPGGA,091206.000,5351.966,N,01040.560,E,1,00,0.0,4.670,M,0.0,M,,*68
$GPGSA,A,3,,,,,,,,,,,,,0.0,0.0,0.0*32
$GPRMC,091207.000,A,5351.965,N,01040.562,E,0.00,0.00,240809,,*05
$GPGGA,091207.000,5351.965,N,01040.562,E,1,00,0.0,5.470,M,0.0,M,,*6B
$GPGSA,A,3,,,,,,,,,,,,,0.0,0.0,0.0*32
$GPRMC,091208.000,A,5351.965,N,01040.562,E,0.00,0.00,240809,,*0A
$GPGGA,091208.000,5351.965,N,01040.562,E,1,00,0.0,5.580,M,0.0,M,,*6A
$GPGSA,A,3,,,,,,,,,,,,,0.0,0.0,0.0*32
$GPRMC,091209.000,A,5351.965,N,01040.563,E,0.00,0.00,240809,,*0A
$GPGGA,091209.000,5351.965,N,01040.563,E,1,00,0.0,5.680,M,0.0,M,,*69
$GPGSA,A,3,,,,,,,,,,,,,0.0,0.0,0.0*32
$GPRMC,091210.000,A,5351.965,N,01040.565,E,0.00,0.00,240809,,*04
$GPGGA,091210.000,5351.965,N,01040.565,E,1,00,0.0,5.900,M,0.0,M,,*60
$GPGSA,A,3,,,,,,,,,,,,,0.0,0.0,0.0*32
$GPRMC,091211.000,A,5351.964,N,01040.566,E,0.00,0.00,240809,,*07
$GPGGA,091211.000,5351.964,N,01040.566,E,1,00,0.0,5.210,M,0.0,M,,*69
$GPGSA,A,3,,,,,,,,,,,,,0.0,0.0,0.0*32
$GPRMC,091212.000,A,5351.964,N,01040.567,E,0.00,0.00,240809,,*05
$GPGGA,091212.000,5351.964,N,01040.567,E,1,00,0.0,5.310,M,0.0,M,,*6A
$GPGSA,A,3,,,,,,,,,,,,,0.0,0.0,0.0*32
$GPRMC,091213.000,A,5351.964,N,01040.569,E,0.00,0.00,240809,,*0A
$GPGGA,091213.000,5351.964,N,01040.569,E,1,00,0.0,6.110,M,0.0,M,,*64
$GPGSA,A,3,,,,,,,,,,,,,0.0,0.0,0.0*32
$GPRMC,091214.000,A,5351.963,N,01040.569,E,0.00,0.00,240809,,*0A
$GPGGA,091214.000,5351.963,N,01040.569,E,1,00,0.0,5.410,M,0.0,M,,*62
$GPGSA,A,3,,,,,,,,,,,,,0.0,0.0,0.0*32
$GPRMC,000000.000,A,5351.963,N,01040.569,E,0.00,0.00,010070,,*04
$GPGGA,000000.000,5351.963,N,01040.569,E,1,00,0.0,5.410,M,0.0,M,,*6D
$GPGSA,A,3,,,,,,,,,,,,,0.0,0.0,0.0*32
$GPRMC,091215.000,A,5351.963,N,01040.570,E,0.00,0.00,240809,,*03
$GPGGA,091215.000,5351.963,N,01040.570,E,1,00,0.0,5.520,M,0.0,M,,*69
$GPGSA,A,3,,,,,,,,,,,,,0.0,0.0,0.0*32
$GPRMC,091216.000,A,5351.963,N,01040.571,E,0.00,0.00,240809,,*01
$GPGGA,091216.000,5351.963,N,01040.571,E,1,00,0.0,5.630,M,0.0,M,,*69
$GPGSA,A,3,,,,,,,,,,,,,0.0,0.0,0.0*32
$GPRMC,091217.000,A,5351.963,N,01040.573,E,0.00,0.00,240809,,*02
$GPGGA,091217.000,5351.963,N,01040.573,E,1,00,0.0,5.850,M,0.0,M,,*62
$GPGSA,A,3,,,,,,,,,,,,,0.0,0.0,0.0*32
$GPRMC,091218.000,A,5351.963,N,01040.574,E,0.00,0.00,240809,,*0A
$GPGGA,091218.000,5351.963,N,01040.574,E,1,00,0.0,5.150,M,0.0,M,,*63
$GPGSA,A,3,,,,,,,,,,,,,0.0,0.0,0.0*32
$GPRMC,091220.000,A,5351.962,N,01040.577,E,0.00,0.00,240809,,*03
$GPGGA,091220.000,5351.962,N,01040.577,E,1,00,0.0,5.480,M,0.0,M,,*62
$GPGSA,A,3,,,,,,,,,,,,,0.0,0.0,0.0*32
$GPRMC,091221.000,A,5351.962,N,01040.577,E,0.00,0.00,240809,,*02
$GPGGA,091221.000,5351.962,N,01040.577,E,1,00,0.0,4.780,M,0.0,M,,*61
$GPGSA,A,3,,,,,,,,,,,,,0.0,0.0,0.0*32
$GPRMC,091222.000,A,5351.962,N,01040.578,E,0.00,0.00,240809,,*0E
$GPGGA,091222.000,5351.962,N,01040.578,E,1,00,0.0,4.890,M,0.0,M,,*63
$GPGSA,A,3,,,,,,,,,,,,,0.0,0.0,0.0*32
$GPRMC,091223.000,A,5351.962,N,01040.580,E,0.00,0.00,240809,,*08
$GPGGA,091223.000,5351.962,N,01040.580,E,1,00,0.0,5.110,M,0.0,M,,*65
$GPGSA,A,3,,,,,,,,,,,,,0.0,0.0,0.0*32
$GPRMC,091224.000,A,5351.962,N,01040.581,E,0.00,0.00,240809,,*0E
$GPGGA,091224.000,5351.962,N,01040.581,E,1,00,0.0,5.220,M,0.0,M,,*63
$GPGSA,A,3,,,,,,,,,,,,,0.0,0.0,0.0*32
$GPRMC,091226.000,A,5351.961,N,01040.584,E,0.00,0.00,240809,,*0A
$GPGGA,091226.000,5351.961,N,01040.584,E,1,00,0.0,4.160,M,0.0,M,,*61
$GPGSA,A,3,,,,,,,,,,,,,0.0,0.0,0.0*32
$GPRMC,091227.000,A,5351.961,N,01040.585,E,0.00,0.00,240809,,*0A
$GPGGA,091227.000,5351.961,N,01040.585,E,1,00,0.0,4.270,M,0.0,M,,*63
$GPGSA,A,3,,,,,,,,,,,,,0.0,0.0,0.0*32
$GPRMC,091228.000,A,5351.961,N,01040.587,E,0.00,0.00,240809,,*07
$GPGGA,091228.000,5351.961,N,01040.587,E,1,00,0.0,4.490,M,0.0,M,,*66
$GPGSA,A,3,,,,,,,,,,,,,0.0,0.0,0.0*32
$GPRMC,091229.000,A,5351.961,N,01040.587,E,0.00,0.00,240809,,*06
$GPGGA,091229.000,5351.961,N,01040.587,E,1,00,0.0,4.600,M,0.0,M,,*6C
$GPGSA,A,3,,,,,,,,,,,,,0.0,0.0,0.0*32
$GPRMC,091230.000,A,5351.961,N,01040.588,E,0.00,0.00,240809,,*01
$GPGGA,091230.000,5351.961,N,01040.588,E,1,00,0.0,4.710,M,0.0,M,,*6B
$GPGSA,A,3,,,,,,,,,,,,,0.0,0.0,0.0*32
$GPRMC,091231.000,A,5351.961,N,01040.589,E,0.00,0.00,240809,,*01
$GPGGA,091231.000,5351.961,N,01040.589,E,1,00,0.0,4.820,M,0.0,M,,*67
$GPGSA,A,3,,,,,,,,,,,,,0.0,0.0,0.0*32
$GPRMC,091232.000,A,5351.961,N,01040.591,E,0.00,0.00,240809,,*0B
$GPGGA,091232.000,5351.961,N,01040.591,E,1,00,0.0,5.030,M,0.0,M,,*65
$GPGSA,A,3,,,,,,,,,,,,,0.0,0.0,0.0*32
$GPRMC,091233.000,A,5351.961,N,01040.592,E,0.00,0.00,240809,,*09
$GPGGA,091233.000,5351.961,N,01040.592,E,1,00,0.0,5.140,M,0.0,M,,*61
$GPGSA,A,3,,,,,,,,,,,,,0.0,0.0,0.0*32
$GPRMC,091234.000,A,5351.961,N,01040.594,E,0.00,0.00,240809,,*08
$GPGGA,091234.000,5351.961,N,01040.594,E,1,00,0.0,5.360,M,0.0,M,,*60
$GPGSA,A,3,,,,,,,,,,,,,0.0,0.0,0.0*32
$GPRMC,091235.000,A,5351.960,N,01040.595,E,0.00,0.00,240809,,*09
$GPGGA,091235.000,5351.960,N,01040.595,E,1,00,0.0,5.470,M,0.0,M,,*67
$GPGSA,A,3,,,,,,,,,,,,,0.0,0.0,0.0*32
$GPRMC,091236.000,A,5351.960,N,01040.596,E,0.00,0.00,240809,,*09
$GPGGA,091236.000,5351.960,N,01040.596,E,1,00,0.0,5.580,M,0.0,M,,*69
$GPGSA,A,3,,,,,,,,,,,,,0.0,0.0,0.0*32
$GPRMC,091237.000,A,5351.960,N,01040.597,E,0.00,0.00,240809,,*09
$GPGGA,091237.000,5351.960,N,01040.597,E,1,00,0.0,5.800,M,0.0,M,,*6C
$GPGSA,A,3,,,,,,,,,,,,,0.0,0.0,0.0*32
$GPRMC,091238.000,A,5351.960,N,01040.598,E,0.00,0.00,240809,,*09
$GPGGA,091238.000,5351.960,N,01040.598,E,1,00,0.0,5.910,M,0.0,M,,*6C
$GPGSA,A,3,,,,,,,,,,,,,0.0,0.0,0.0*32
$GPRMC,091239.000,A,5351.960,N,01040.600,E,0.00,0.00,240809,,*0A
$GPGGA,091239.000,5351.960,N,01040.600,E,1,00,0.0,5.320,M,0.0,M,,*66
$GPGSA,A,3,,,,,,,,,,,,,0.0,0.0,0.0*32
$GPRMC,091240.000,A,5351.960,N,01040.601,E,0.00,0.00,240809,,*05
$GPGGA,091240.000,5351.960,N,01040.601,E,1,00,0.0,5.430,M,0.0,M,,*6F
$GPGSA,A,3,,,,,,,,,,,,,0.0,0.0,0.0*32
$GPRMC,091241.000,A,5351.960,N,01040.603,E,0.00,0.00,240809,,*06
$GPGGA,091241.000,5351.960,N,01040.603,E,1,00,0.0,6.450,M,0.0,M,,*69
$GPGSA,A,3,,,,,,,,,,,,,0.0,0.0,0.0*32
$GPRMC,091242.000,A,5351.960,N,01040.604,E,0.00,0.00,240809,,*02
$GPGGA,091242.000,5351.960,N,01040.604,E,1,00,0.0,5.980,M,0.0,M,,*6E
$GPGSA,A,3,,,,,,,,,,,,,0.0,0.0,0.0*32
$GPRMC,091244.000,A,5351.960,N,01040.606,E,0.00,0.00,240809,,*06
$GPGGA,091244.000,5351.960,N,01040.606,E,1,00,0.0,6.310,M,0.0,M,,*6A
$GPGSA,A,3,,,,,,,,,,,,,0.0,0.0,0.0*32
$GPRMC,000000.000,A,5351.960,N,01040.606,E,0.00,0.00,010070,,*0D
$GPGGA,000000.000,5351.960,N,01040.606,E,1,00,0.0,6.310,M,0.0,M,,*60
$GPGSA,A,3,,,,,,,,,,,,,0.0,0.0,0.0*32
$GPRMC,091245.000,A,5351.960,N,01040.607,E,0.00,0.00,240809,,*06
$GPGGA,091245.000,5351.960,N,01040.607,E,1,00,0.0,6.420,M,0.0,M,,*6E
$GPGSA,A,3,,,,,,,,,,,,,0.0,0.0,0.0*32
$GPRMC,091246.000,A,5351.960,N,01040.608,E,0.00,0.00,240809,,*0A
$GPGGA,091246.000,5351.960,N,01040.608,E,1,00,0.0,6.530,M,0.0,M,,*62
$GPGSA,A,3,,,,,,,,,,,,,0.0,0.0,0.0*32
$GPRMC,091247.000,A,5351.960,N,01040.610,E,0.00,0.00,240809,,*02
$GPGGA,091247.000,5351.960,N,01040.610,E,1,00,0.0,6.750,M,0.0,M,,*6E
$GPGSA,A,3,,,,,,,,,,,,,0.0,0.0,0.0*32
$GPRMC,091248.000,A,5351.959,N,01040.612,E,0.00,0.00,240809,,*05
$GPGGA,091248.000,5351.959,N,01040.612,E,1,00,0.0,6.160,M,0.0,M,,*6C
$GPGSA,A,3,,,,,,,,,,,,,0.0,0.0,0.0*32
$GPRMC,091250.000,A,5351.958,N,01040.614,E,0.00,0.00,240809,,*0B
$GPGGA,091250.000,5351.958,N,01040.614,E,1,00,0.0,7.070,M,0.0,M,,*63
$GPGSA,A,3,,,,,,,,,,,,,0.0,0.0,0.0*32
$GPRMC,091251.000,A,5351.959,N,01040.615,E,0.00,0.00,240809,,*0A
$GPGGA,091251.000,5351.959,N,01040.615,E,1,00,0.0,6.600,M,0.0,M,,*62
$GPGSA,A,3,,,,,,,,,,,,,0.0,0.0,0.0*32
$GPRMC,091252.000,A,5351.958,N,01040.617,E,0.00,0.00,240809,,*0A
$GPGGA,091252.000,5351.958,N,01040.617,E,1,00,0.0,6.590,M,0.0,M,,*68
$GPGSA,A,3,,,,,,,,,,,,,0.0,0.0,0.0*32
$GPRMC,091253.000,A,5351.958,N,01040.618,E,0.00,0.00,240809,,*04
$GPGGA,091253.000,5351.958,N,01040.618,E,1,00,0.0,6.700,M,0.0,M,,*6D
$GPGSA,A,3,,,,,,,,,,,,,0.0,0.0,0.0*32
$GPRMC,091254.000,A,5351.958,N,01040.619,E,0.00,0.00,240809,,*02
$GPGGA,091254.000,5351.958,N,01040.619,E,1,00,0.0,6.230,M,0.0,M,,*6D
$GPGSA,A,3,,,,,,,,,,,,,0.0,0.0,0.0*32
$GPRMC,091255.000,A,5351.958,N,01040.621,E,0.00,0.00,240809,,*08
$GPGGA,091255.000,5351.958,N,01040.621,E,1,00,0.0,5.640,M,0.0,M,,*67
$GPGSA,A,3,,,,,,,,,,,,,0.0,0.0,0.0*32
$GPRMC,091256.000,A,5351.958,N,01040.622,E,0.00,0.00,240809,,*08
$GPGGA,091256.000,5351.958,N,01040.622,E,1,00,0.0,5.750,M,0.0,M,,*67
$GPGSA,A,3,,,,,,,,,,,,,0.0,0.0,0.0*32
$GPRMC,091257.000,A,5351.957,N,01040.623,E,0.00,0.00,240809,,*07
$GPGGA,091257.000,5351.957,N,01040.623,E,1,00,0.0,5.860,M,0.0,M,,*64
$GPGSA,A,3,,,,,,,,,,,,,0.0,0.0,0.0*32
$GPRMC,091258.000,A,5351.957,N,01040.624,E,0.00,0.00,240809,,*0F
$GPGGA,091258.000,5351.957,N,01040.624,E,1,00,0.0,6.070,M,0.0,M,,*66
$GPGSA,A,3,,,,,,,,,,,,,0.0,0.0,0.0*32
$GPRMC,091259.000,A,5351.957,N,01040.625,E,0.00,0.00,240809,,*0F
$GPGGA,091259.000,5351.957,N,01040.625,E,1,00,0.0,5.380,M,0.0,M,,*69
$GPGSA,A,3,,,,,,,,,,,,,0.0,0.0,0.0*32
$GPRMC,091300.000,A,5351.957,N,01040.627,E,0.00,0.00,240809,,*00
$GPGGA,091300.000,5351.957,N,01040.627,E,1,00,0.0,5.590,M,0.0,M,,*61
$GPGSA,A,3,,,,,,,,,,,,,0.0,0.0,0.0*32
$GPRMC,091302.000,A,5351.957,N,01040.630,E,0.00,0.00,240809,,*04
$GPGGA,091302.000,5351.957,N,01040.630,E,1,00,0.0,5.920,M,0.0,M,,*62
$GPGSA,A,3,,,,,,,,,,,,,0.0,0.0,0.0*32
$GPRMC,091303.000,A,5351.956,N,01040.630,E,0.00,0.00,240809,,*04
$GPGGA,091303.000,5351.956,N,01040.630,E,1,00,0.0,5.800,M,0.0,M,,*61
$GPGSA,A,3,,,,,,,,,,,,,0.0,0.0,0.0*32
$GPRMC,091304.000,A,5351.956,N,01040.631,E,0.00,0.00,240809,,*02
$GPGGA,091304.000,5351.956,N,01040.631,E,1,00,0.0,5.910,M,0.0,M,,*67
$GPGSA,A,3,,,,,,,,,,,,,0.0,0.0,0.0*32
$GPRMC,091305.000,A,5351.956,N,01040.632,E,0.00,0.00,240809,,*00
$GPGGA,091305.000,5351.956,N,01040.632,E,1,00,0.0,6.020,M,0.0,M,,*6C
$GPGSA,A,3,,,,,,,,,,,,,0.0,0.0,0.0*32
$GPRMC,091306.000,A,5351.955,N,01040.632,E,0.00,0.00,240809,,*00
$GPGGA,091306.000,5351.955,N,01040.632,E,1,00,0.0,5.210,M,0.0,M,,*6E
$GPGSA,A,3,,,,,,,,,,,,,0.0,0.0,0.0*32
$GPRMC,091307.000,A,5351.955,N,01040.633,E,0.00,0.00,240809,,*00
$GPGGA,091307.000,5351.955,N,01040.633,E,1,00,0.0,5.320,M,0.0,M,,*6C
$GPGSA,A,3,,,,,,,,,,,,,0.0,0.0,0.0*32
$GPRMC,091308.000,A,5351.955,N,01040.634,E,0.00,0.00,240809,,*08
$GPGGA,091308.000,5351.955,N,01040.634,E,1,00,0.0,5.430,M,0.0,M,,*62
$GPGSA,A,3,,,,,,,,,,,,,0.0,0.0,0.0*32
$GPRMC,091309.000,A,5351.955,N,01040.635,E,0.00,0.00,240809,,*08
$GPGGA,091309.000,5351.955,N,01040.635,E,1,00,0.0,6.120,M,0.0,M,,*65
$GPGSA,A,3,,,,,,,,,,,,,0.0,0.0,0.0*32
$GPRMC,091310.000,A,5351.954,N,01040.636,E,0.00,0.00,240809,,*02
$GPGGA,091310.000,5351.954,N,01040.636,E,1,00,0.0,7.620,M,0.0,M,,*69
$GPGSA,A,3,,,,,,,,,,,,,0.0,0.0,0.0*32
$GPRMC,091311.000,A,5351.954,N,01040.636,E,0.00,0.00,240809,,*03
$GPGGA,091311.000,5351.954,N,01040.636,E,1,00,0.0,7.620,M,0.0,M,,*68
$GPGSA,A,3,,,,,,,,,,,,,0.0,0.0,0.0*32
$GPRMC,091312.000,A,5351.954,N,01040.636,E,0.00,0.00,240809,,*00
$GPGGA,091312.000,5351.954,N,01040.636,E,1,00,0.0,7.730,M,0.0,M,,*6B
$GPGSA,A,3,,,,,,,,,,,,,0.0,0.0,0.0*32
$GPRMC,091313.000,A,5351.954,N,01040.636,E,0.00,0.00,240809,,*01
$GPGGA,091313.000,5351.954,N,01040.636,E,1,00,0.0,7.730,M,0.0,M,,*6A
$GPGSA,A,3,,,,,,,,,,,,,0.0,0.0,0.0*32
$GPRMC,091314.000,A,5351.954,N,01040.636,E,0.00,0.00,240809,,*06
$GPGGA,091314.000,5351.954,N,01040.636,E,1,00,0.0,7.730,M,0.0,M,,*6D
$GPGSA,A,3,,,,,,,,,,,,,0.0,0.0,0.0*32
$GPRMC,000000.000,A,5351.954,N,01040.636,E,0.00,0.00,010070,,*09
$GPGGA,000000.000,5351.954,N,01040.636,E,1,00,0.0,7.730,M,0.0,M,,*63
$GPGSA,A,3,,,,,,,,,,,,,0.0,0.0,0.0*32
$GPRMC,091315.000,A,5351.954,N,01040.637,E,0.00,0.00,240809,,*06
$GPGGA,091315.000,5351.954,N,01040.637,E,1,00,0.0,7.840,M,0.0,M,,*65
$GPGSA,A,3,,,,,,,,,,,,,0.0,0.0,0.0*32
$GPRMC,091316.000,A,5351.954,N,01040.637,E,0.00,0.00,240809,,*05
$GPGGA,091316.000,5351.954,N,01040.637,E,1,00,0.0,7.840,M,0.0,M,,*66
$GPGSA,A,3,,,,,,,,,,,,,0.0,0.0,0.0*32
$GPRMC,091317.000,A,5351.954,N,01040.638,E,0.00,0.00,240809,,*0B
$GPGGA,091317.000,5351.954,N,01040.638,E,1,00,0.0,9.330,M,0.0,M,,*6A
$GPGSA,A,3,,,,,,,,,,,,,0.0,0.0,0.0*32
$GPRMC,091318.000,A,5351.954,N,01040.640,E,0.00,0.00,240809,,*0B
$GPGGA,091318.000,5351.954,N,01040.640,E,1,00,0.0,9.550,M,0.0,M,,*6A
$GPGSA,A,3,,,,,,,,,,,,,0.0,0.0,0.0*32
$GPRMC,091320.000,A,5351.954,N,01040.643,E,0.00,0.00,240809,,*03
$GPGGA,091320.000,5351.954,N,01040.643,E,1,00,0.0,9.300,M,0.0,M,,*61
$GPGSA,A,3,,,,,,,,,,,,,0.0,0.0,0.0*32
$GPRMC,091321.000,A,5351.954,N,01040.645,E,0.00,0.00,240809,,*04
$GPGGA,091321.000,5351.954,N,01040.645,E,1,00,0.0,8.940,M,0.0,M,,*69
$GPGSA,A,3,,,,,,,,,,,,,0.0,0.0,0.0*32
$GPRMC,091322.000,A,5351.954,N,01040.646,E,0.00,0.00,240809,,*04
$GPGGA,091322.000,5351.954,N,01040.646,E,1,00,0.0,9.160,M,0.0,M,,*62
$GPGSA,A,3,,,,,,,,,,,,,0.0,0.0,0.0*32
$GPRMC,091323.000,A,5351.954,N,01040.648,E,0.00,0.00,240809,,*0B
$GPGGA,091323.000,5351.954,N,01040.648,E,1,00,0.0,8.690,M,0.0,M,,*64
$GPGSA,A,3,,,,,,,,,,,,,0.0,0.0,0.0*32
$GPRMC,091324.000,A,5351.955,N,01040.649,E,0.00,0.00,240809,,*0C
$GPGGA,091324.000,5351.955,N,01040.649,E,1,00,0.0,8.220,M,0.0,M,,*6C
$GPGSA,A,3,,,,,,,,,,,,,0.0,0.0,0.0*32
$GPRMC,091326.000,A,5351.955,N,01040.651,E,0.00,0.00,240809,,*07
$GPGGA,091326.000,5351.955,N,01040.651,E,1,00,0.0,7.860,M,0.0,M,,*66
$GPGSA,A,3,,,,,,,,,,,,,0.0,0.0,0.0*32
$GPRMC,091327.000,A,5351.956,N,01040.653,E,0.00,0.00,240809,,*07
$GPGGA,091327.000,5351.956,N,01040.653,E,1,00,0.0,8.300,M,0.0,M,,*64
$GPGSA,A,3,,,,,,,,,,,,,0.0,0.0,0.0*32
$GPRMC,091328.000,A,5351.956,N,01040.653,E,0.00,0.00,240809,,*08
$GPGGA,091328.000,5351.956,N,01040.653,E,1,00,0.0,8.410,M,0.0,M,,*6D
$GPGSA,A,3,,,,,,,,,,,,,0.0,0.0,0.0*32
$GPRMC,091329.000,A,5351.956,N,01040.654,E,0.00,0.00,240809,,*0E
$GPGGA,091329.000,5351.956,N,01040.654,E,1,00,0.0,8.520,M,0.0,M,,*69
$GPGSA,A,3,,,,,,,,,,,,,0.0,0.0,0.0*32
$GPRMC,091330.000,A,5351.955,N,01040.655,E,0.00,0.00,240809,,*04
$GPGGA,091330.000,5351.955,N,01040.655,E,1,00,0.0,8.630,M,0.0,M,,*61
$GPGSA,A,3,,,,,,,,,,,,,0.0,0.0,0.0*32
$GPRMC,091332.000,A,5351.956,N,01040.658,E,0.00,0.00,240809,,*08
$GPGGA,091332.000,5351.956,N,01040.658,E,1,00,0.0,8.380,M,0.0,M,,*63
$GPGSA,A,3,,,,,,,,,,,,,0.0,0.0,0.0*32
$GPRMC,091333.000,A,5351.956,N,01040.659,E,0.00,0.00,240809,,*08
$GPGGA,091333.000,5351.956,N,01040.659,E,1,00,0.0,7.910,M,0.0,M,,*6F
$GPGSA,A,3,,,,,,,,,,,,,0.0,0.0,0.0*32
$GPRMC,091334.000,A,5351.956,N,01040.659,E,0.00,0.00,240809,,*0F
$GPGGA,091334.000,5351.956,N,01040.659,E,1,00,0.0,7.910,M,0.0,M,,*68
$GPGSA,A,3,,,,,,,,,,,,,0.0,0.0,0.0*32
$GPRMC,091335.000,A,5351.956,N,01040.661,E,0.00,0.00,240809,,*05
$GPGGA,091335.000,5351.956,N,01040.661,E,1,00,0.0,7.320,M,0.0,M,,*6B
$GPGSA,A,3,,,,,,,,,,,,,0.0,0.0,0.0*32
$GPRMC,091336.000,A,5351.955,N,01040.663,E,0.00,0.00,240809,,*07
$GPGGA,091336.000,5351.955,N,01040.663,E,1,00,0.0,7.540,M,0.0,M,,*69
$GPGSA,A,3,,,,,,,,,,,,,0.0,0.0,0.0*32
$GPRMC,091337.000,A,5351.955,N,01040.664,E,0.00,0.00,240809,,*01
$GPGGA,091337.000,5351.955,N,01040.664,E,1,00,0.0,7.650,M,0.0,M,,*6D
$GPGSA,A,3,,,,,,,,,,,,,0.0,0.0,0.0*32
$GPRMC,091338.000,A,5351.955,N,01040.665,E,0.00,0.00,240809,,*0F
$GPGGA,091338.000,5351.955,N,01040.665,E,1,00,0.0,7.870,M,0.0,M,,*6F
$GPGSA,A,3,,,,,,,,,,,,,0.0,0.0,0.0*32
$GPRMC,091339.000,A,5351.955,N,01040.666,E,0.00,0.00,240809,,*0D
$GPGGA,091339.000,5351.955,N,01040.666,E,1,00,0.0,7.980,M,0.0,M,,*63
$GPGSA,A,3,,,,,,,,,,,,,0.0,0.0,0.0*32
$GPRMC,091340.000,A,5351.955,N,01040.667,E,0.00,0.00,240809,,*02
$GPGGA,091340.000,5351.955,N,01040.667,E,1,00,0.0,7.280,M,0.0,M,,*67
$GPGSA,A,3,,,,,,,,,,,,,0.0,0.0,0.0*32
$GPRMC,091341.000,A,5351.954,N,01040.669,E,0.00,0.00,240809,,*0C
$GPGGA,091341.000,5351.954,N,01040.669,E,1,00,0.0,7.500,M,0.0,M,,*66
$GPGSA,A,3,,,,,,,,,,,,,0.0,0.0,0.0*32
$GPRMC,091342.000,A,5351.954,N,01040.670,E,0.00,0.00,240809,,*07
$GPGGA,091342.000,5351.954,N,01040.670,E,1,00,0.0,6.220,M,0.0,M,,*69
$GPGSA,A,3,,,,,,,,,,,,,0.0,0.0,0.0*32
$GPRMC,091343.000,A,5351.954,N,01040.671,E,0.00,0.00,240809,,*07
$GPGGA,091343.000,5351.954,N,01040.671,E,1,00,0.0,6.330,M,0.0,M,,*69
$GPGSA,A,3,,,,,,,,,,,,,0.0,0.0,0.0*32
$GPRMC,091344.000,A,5351.954,N,01040.672,E,0.00,0.00,240809,,*03
$GPGGA,091344.000,5351.954,N,01040.672,E,1,00,0.0,6.440,M,0.0,M,,*6D
$GPGSA,A,3,,,,,,,,,,,,,0.0,0.0,0.0*32
$GPRMC,000000.000,A,5351.954,N,01040.672,E,0.00,0.00,010070,,*09
$GPGGA,000000.000,5351.954,N,01040.672,E,1,00,0.0,6.440,M,0.0,M,,*66
$GPGSA,A,3,,,,,,,,,,,,,0.0,0.0,0.0*32
$GPRMC,000000.000,A,5351.954,N,01040.672,E,0.00,0.00,010070,,*09
$GPGGA,000000.000,5351.954,N,01040.672,E,1,00,0.0,6.440,M,0.0,M,,*66
$GPGSA,A,3,,,,,,,,,,,,,0.0,0.0,0.0*32
$GPRMC,091345.000,A,5351.955,N,01040.674,E,0.00,0.00,240809,,*05
$GPGGA,091345.000,5351.955,N,01040.674,E,1,00,0.0,6.080,M,0.0,M,,*63
$GPGSA,A,3,,,,,,,,,,,,,0.0,0.0,0.0*32
$GPRMC,091346.000,A,5351.954,N,01040.675,E,0.00,0.00,240809,,*06
$GPGGA,091346.000,5351.954,N,01040.675,E,1,00,0.0,5.380,M,0.0,M,,*60
$GPGSA,A,3,,,,,,,,,,,,,0.0,0.0,0.0*32
